company_name,address,midc_area,industry_label,business_type,latitude,longitude,phone,website,rating,total_reviews
220/132/33 KV MSETCL Baramati Substation,"R 59, Baramati Midc, Maharashtra Industrial Development Corporation Area, Baramati, Maharashtra 413133, India",Baramati,General Manufacturing,Manufacturer,18.1807884,74.6026574,,,4.4,5
3D SculpLab - Online Manufacturing Service,"205, Satyam Bldg., Waghire Heights, behind Nav Maharashtra School, Pimpri Gaon, Pune, Maharashtra 411017, India",Baramati,General Manufacturing,Manufacturer,18.6084377,73.8022675,079759 44394,https://www.3dsculplab.xyz/,5,31
3WD Software,"Office No. 3, 4th floor, Mukti Corporate Plazza, Baramati Bhigwan Road, near Baramati Panchayat Samiti, Anand Nagar Colony, Baramati, Maharashtra 413102, India",Baramati,Electronics Manufacturing,Manufacturer,18.1570171,74.5813194,088080 89975,http://www.3wdsoft.com/,4.5,21
5 Elements Organic,"Shop No.04, Plot No.6, 5H28+CG9 5/A, Jagtap Mala, Survey No.292, Sant Savtamali Rd, Khandobanagar, Baramati, Maharashtra 413102, India",Baramati,Food Processing,Manufacturer,18.1510772,74.5663689,,,,
7 Plus Electronics,"5JG4+4M5, Mandai Rd, Suryanagari, Maharashtra Industrial Development Corporation Area, Baramati, Maharashtra 413133, India",Baramati,Electronics Manufacturing,Manufacturer,18.175233,74.6066761,099752 63923,,3,2
7th Heaven Cake and Events,"Subhadra Mall, below Pantaloons, Maharashtra Industrial Development Corporation Area, Baramati, Maharashtra 413133, India",Baramati,Food Processing,Manufacturer,18.1773356,74.6056984,098221 03331,,4.8,1182
A.K.Speciality Gases Pvt Ltd.,"Plot No: C, 21, Airport Cir, near Fire Office of MIDC, Maharashtra Industrial Development Corporation Area, Vanjarvadi, Baramati, Maharashtra 413133, India",Baramati,General Manufacturing,Manufacturer,18.1942567,74.6054431,02112 297 999,http://www.akgind.com/,4.9,46
Aadarsh Electricals Baramati,"Durga Takies, Near, Patas Rd, Baramati, Maharashtra 413102, India",Baramati,General Manufacturing,Manufacturer,18.1667774,74.5660261,,,,
Aadesh Cleanchem and Hygiene Products,"Road, near Dhawanwasti School, opp. Gas Pump, Khandobanagar, Medad, Baramati, Maharashtra 413102, India",Baramati,Chemical Processing,Manufacturer,18.1567268,74.5627688,,,,
"Aadi's fresh and fancy pure veg ices, Baramati","Jalochi MIDC road, Suryanagari, Maharashtra Industrial Development Corporation Area, Baramati, Maharashtra 413102, India",Baramati,Food Processing,Manufacturer,18.1626607,74.6082816,094233 07194,,4.9,65
Aahira agro industries,"D-47, Maharashtra Industrial Development Corporation Area, Baramati, Maharashtra 413133, India",Baramati,Logistics & Warehousing,Manufacturer,18.1995847,74.6048992,091565 65556,,,
Aakash Couriers,"shree ram chowk, Bhigwan Rd, near SHAYOG SOCIETY, Shiva Nagar, Baramati, Maharashtra 413102, India",Baramati,Logistics & Warehousing,Manufacturer,18.164556,74.5911696,094036 27411,,3,8
Aamir Electricals Baramati,"5H2M+443, Shri Ram Nagar, Desai Estate, Baramati, Maharashtra 413102, India",Baramati,General Manufacturing,Manufacturer,18.1502673,74.5828096,,,3,1
Abhay TV House,"4HXC+CJ4, New Kacheri Rd, Gandhi Chowk, Samarth Nagar, Baramati, Maharashtra 413102, India",Baramati,Electronics Manufacturing,Manufacturer,18.1485054,74.571578,,,4,6
Abhir aircon systems,"Sayali Hill, Sai Empire, Bhigwan Road, Saily Nagar, Baramati, Maharashtra 413133, India",Baramati,Electronics Manufacturing,Manufacturer,18.1762106,74.5983939,090115 56262,,3.8,12
Abhir Engineering,"Jalochi road, near Sudit Hotel, Ambika Nagar, Pushpak Apartment, Baramati, Maharashtra 413102, India",Baramati,General Manufacturing,Manufacturer,18.1554186,74.5890232,096998 11427,,2.3,3
Acconix Software Solutions,"Tambe Commercial Complex Offc. No 10 Basement Near Hotel City Inn, Bhigwan Rd, Baramati, Maharashtra 413133, India",Baramati,IT Services,Manufacturer,18.1777567,74.6044836,097306 24232,,4,2
ACPL Transport BARAMATI,"Plot No. D-24, near RTO Office Baramati, Maharashtra Industrial Development Corporation Area, Pune, Baramati, Maharashtra 413133, India",Baramati,Logistics & Warehousing,Manufacturer,18.1905128,74.6021794,077220 62479,http://www.acplcargo.com/,2.8,4
Adhishri Manufacturers of Textiles Garments,"Rural Hospital, Nirmiti Capital Near Rui, Maharashtra Industrial Development Corporation Area, Baramati, Maharashtra 413133, India",Baramati,General Manufacturing,Manufacturer,18.1815359,74.6179119,,,5,2
Adhishri Textile Company Outlet,"Shop No 4, Dhale Sanghvi icon City in chowk, Baramati, Maharashtra 413133, India",Baramati,General Manufacturing,Manufacturer,18.1754557,74.6048475,089754 87484,,4.6,11
ADVANCED ROBOTICS AND AUTOMATION,"Baramati Songaon Road, Baramati, Gunavadi, Maharashtra 413102, India",Baramati,General Manufacturing,Manufacturer,18.1305217,74.5832632,,,5,2
AeroSafe,"Textile Park Road, Maharashtra Industrial Development Corporation Area, Baramati, Maharashtra 413102, India",Baramati,General Manufacturing,Manufacturer,18.204092,74.6078344,,,,
Airtech Refrigeration,"Shop No 1&3, nr Bank of Maharashtra, opp. tripaathi classes, Maharashtra Industrial Development Corporation Area, Baramati, Maharashtra 413133, India",Baramati,Electronics Manufacturing,Manufacturer,18.1833637,74.6086974,072767 27274,,4.9,81
AJIT MEDICALS,"tejas palace, Pushpak Apartment, Baramati, Maharashtra 413102, India",Baramati,Pharmaceutical Manufacturing,Manufacturer,18.1605282,74.5864737,098237 35935,,5,1
Ajspire Technologies Pvt. Ltd.,"Anand Gold Coin Building, opposite Baramati Bus Stand, Samarth Nagar, Baramati, Maharashtra 413102, India",Baramati,IT Services,Manufacturer,18.1449188,74.5760593,095957 75123,http://ajspire.com/,4.9,10
AKASH AUTOMATION SOLUTION,"PL.NO.P/83 MIDC KALA SHOPPING, near PETROL PUMP, Baramati, Maharashtra 413133, India",Baramati,General Manufacturing,Manufacturer,18.1836357,74.6108113,,,,
Akash colors and carbon,"Rto Office, near Road Shkati Tyare, Maharashtra Industrial Development Corporation Area, Baramati, Maharashtra 413133, India",Baramati,Plastic Manufacturing,Manufacturer,18.1854731,74.6030817,,,5,1
Akriti Pharma,"Neighborhood of Gaurang Green Energy, Jejuri, Maharashtra 412303, India",Baramati,Pharmaceutical Manufacturing,Manufacturer,18.2629556,74.1772802,022 2173 0204,https://www.akritipharma.com/,4.3,22
AKRUTI BUILD CON (AKRUTI SOLAR),"AKRUTI BUILD CON, Wheel Colony, near TC College Road, Satav Chowk, Baramati, Maharashtra 413102, India",Baramati,Renewable Energy,Manufacturer,18.1585546,74.5762333,097009 64344,http://www.akrutisolar.com/,5,2
AKRUTI SOLAR BRANCH 1,"Akruti Solar Satav Chouk, Sapana Nagar, Surynagari, Baramati, Maharashtra 413102, India",Baramati,Renewable Energy,Manufacturer,18.1624807,74.5803778,091302 94344,,,
Akshay-Deep Textile Pvt. Ltd. (Men's Cartel),"Shop no.5&6, Building A/1, Nilkanth Nagar Ajmera Society, 384, Ajmera society Nilkanth Nagar, Bhawani Peth, Pune, Maharashtra 411002, India",Baramati,General Manufacturing,Manufacturer,18.5084361,73.874026,098600 43999,,,
ALCO TECH ENGINEERING UNIT -II,"Plot No. G89, near Kataphal Station, Maharashtra Industrial Development Corporation Area, Baramati, Gojubavi, Maharashtra 413133, India",Baramati,Mechanical Engineering,Manufacturer,18.2340354,74.5992623,,,4.5,2
AlcoTex Pvt Ltd,"5H8W+MC3, Bhigwan Rd, Kanchannagar, Shiva Nagar, Baramati, Maharashtra 413102, India",Baramati,Chemical Processing,Manufacturer,18.1666276,74.5960559,,,,
Alfa agro & livestock Baramati,"5HWF+66P, Hingane Wasti, Sadguru Nagar, Baramati, Maharashtra 413102, India",Baramati,Food Processing,Manufacturer,18.1955809,74.5730933,070204 64632,,4.5,6
Alfa agro and livestock Baramati,"293, Tandulwadi, Baramati, Maharashtra 413102, India",Baramati,Food Processing,Manufacturer,18.1955818,74.5730926,096653 99613,,5,5
Alfa Engineering And Automotives,"Servey No- 241/1, A/6B, Patas Rd, Hingane Wasti, Baramati, Maharashtra 413102, India",Baramati,Automobile Manufacturing,Manufacturer,18.1584885,74.5707512,091580 46786,https://www.alfaautomotives.in/,4.2,147
Alfa Engineering Works,"Plot NO G 40,41, Maharashtra Industrial Development Corporation Area, Baramati, Gojubavi, Maharashtra 413133, India",Baramati,Mechanical Engineering,Manufacturer,18.231106,74.5993458,,,5,2
Alfa Plastics Industries,"d 36, Maharashtra Industrial Development Corporation Area, Baramati, Maharashtra 413133, India",Baramati,Plastic Manufacturing,Manufacturer,18.1884158,74.6010744,,,,
All Job Facility Office Baramati MIDC,"Mayureshwar devlopers, Jalochi/Indapur Road All Job Facility Office, Pencil Chowk, Baramati Midc, Maharashtra 413133, India",Baramati,IT Services,Manufacturer,18.1759896,74.6097175,097658 90620,,4,17
Alratech Textiles,"Plot no. W-5, opp. Weener Empire plastic Pvt.Ltd, Maharashtra Industrial Development Corporation Area, Baramati, Maharashtra 413133, India",Baramati,General Manufacturing,Manufacturer,18.182621,74.6049252,077569 87077,https://instagram.com/alratechtextiles?igshid=Yzg5MTU1MDY=,5,6
Amaron Pitstop - Chirag Auto,"Ground Floor, Baramati Bhigwan Road, opposite Sahayog Society, Sahyog Society, Baramati, Maharashtra 413102, India",Baramati,Automobile Manufacturing,Manufacturer,18.164907,74.592339,075880 72436,https://stores.amaron.in/amaron-pitstop-chirag-auto-chirag-auto-battery-store-baramati-baramati-247872/Home,4.7,6
Ameya Solar Industries,"E-23, MIDC, Baramati, Maharashtra 413133, India",Baramati,Renewable Energy,Manufacturer,18.1981794,74.6173431,095274 53531,,5,2
Amit electrical,"Shivaji udyan, Kasba, Baramati, Maharashtra 413102, India",Baramati,General Manufacturing,Manufacturer,18.1450457,74.5682973,091589 47000,,5,1
AMPOWER ELECTRICAL & ENGINEERS,"C-63, Maharashtra Industrial Development Corporation Area, Baramati, Maharashtra 413133, India",Baramati,General Manufacturing,Manufacturer,18.1954103,74.6084426,097655 36110,https://ampowerelectrical.com/,,
ANKITA TECHNOLOGIES,"SHOP NO.10, SAIRAJ COMPLEX, TAPKIRE ESTET, Bhigwan Rd, behind SUZUKI SHOWROOM, Baramati, Maharashtra 413102, India",Baramati,Electronics Manufacturing,Manufacturer,18.1672069,74.5921393,,http://ankita-technologies.com/,4,21
Arihant Electricals Stores,"244, subhas chowk, Nevse Rd, Baramati, Maharashtra 413102, India",Baramati,General Manufacturing,Manufacturer,18.1495172,74.5739072,098220 29241,,4.8,4
Arjun Pride Hotel,"Above Bank of Maharashtra, Near Vanaz LPG Gas, Off Vidya Pratishthan, MIDC Baramati, Baramati, Maharashtra 413133, India",Baramati,Food Processing,Manufacturer,18.1824067,74.6088845,074477 84999,,3.7,318
Arogya parking baramati,"5JH5+M4F, Baramati, Maharashtra 413133, India",Baramati,Logistics & Warehousing,Manufacturer,18.1791791,74.6077971,,,,
Arya Enterprises,"Shop No 1, near Chirag Garden, vijaynagar colony, Ashok Nagar Colony, Baramati, Maharashtra 413102, India",Baramati,Renewable Energy,Manufacturer,18.1546535,74.5807962,090115 41458,,5,1
"ASCENT SOFTCORPORATION PVT LTD ,BARAMATI [Design \ Manufacturing \ Services \Projects ]","Samarth Nagar, Baramati,Behind St Stand Near Anuchandra Hospital, Maharashtra 41, Baramati, Maharashtra 413102, India",Baramati,Electronics Manufacturing,Manufacturer,18.143858,74.577064,099755 55636,http://www.ascentsoftech.com/,4.9,378
Ashoka Techno Solutions,"D20/4, Maharashtra Industrial Development Corporation Area, Baramati, Maharashtra 413133, India",Baramati,Logistics & Warehousing,Manufacturer,18.1891603,74.6004851,097637 02924,,5,6
Asmita Cement Pipes and Products,"Plot No. G-15, MIDC, BARAMATI, Airport Cir, Maharashtra Industrial Development Corporation Area, Baramati, Maharashtra 413133, India",Baramati,Mechanical Engineering,Manufacturer,18.2317906,74.5987264,097635 82918,,5,4
ASPI Companies,"abasaheb satav chowk, Surynagari, Baramati, Maharashtra 413102, India",Baramati,General Manufacturing,Manufacturer,18.1633558,74.5786831,,https://www.aspicompanies.com/,,
ATAL INCUBATION CENTRE AIC-ADT BARAMATI FOUNDATION,"Malegaon road Shardanagar, Baramati, Maharashtra 413102, India",Baramati,IT Services,Manufacturer,18.1318101,74.5424262,086699 11299,http://www.aicadtbaramatifoundation.org/,4.8,49
Atharv engineering works,"G-116, Maharashtra Industrial Development Corporation Area, Baramati, Gojubavi, Maharashtra 413133, India",Baramati,General Manufacturing,Manufacturer,18.2315429,74.600933,,,,
Atharv Industries,"G-347, Maharashtra Industrial Development Corporation Area, Baramati, Katphal, Maharashtra 413133, India",Baramati,Plastic Manufacturing,Manufacturer,18.227806,74.6050728,,,5,1
Avinash Electrical,"5H4M+769, Baramati Bhigwan Road, Ashok Nagar Colony, Baramati, Maharashtra 413102, India",Baramati,Electronics Manufacturing,Manufacturer,18.1556537,74.5831038,,,5,1
Azurebird Cloud Solutions LLP,"Subhadra Mall Back side, Flat no 2, Vanve clinic building, Medical College Rd, Maharashtra Industrial Development Corporation Area, Tambenagar, Baramati, Maharashtra 413133, India",Baramati,Electronics Manufacturing,Manufacturer,18.1781759,74.603471,079728 36516,,5,1
BABJEE AGRO INDUSTRIES,"GULUMKAR WASTI, Phaltan - Baramati Rd, Baramati, Maharashtra 413102, India",Baramati,Mechanical Engineering,Manufacturer,18.1402358,74.566261,091303 05252,,5,1
BAFNA CATERING & BAFNA FOODS,"Pragatinagar, Baramati, Maharashtra 413102, India",Baramati,Food Processing,Manufacturer,18.1649125,74.5854029,097308 54570,https://bafna-catering-bafna.grexa.site/,4.5,10
Bajaj Auto Credit | Kamal Motors Chetak Baramati | Two Wheeler Loan,"Somani Heights, Baramati Bhigwan Road, near Urja Bhavan, MSEB colony, Baramati, Maharashtra 413102, India",Baramati,Automobile Manufacturing,Manufacturer,18.1685207,74.595567,079 4822 9393,https://www.bajajautocredit.com/,5,3
Balaji Enterprises,"Shop No 46 Nr Subadra Mall, Baramati Midc, Pune, Maharashtra 413133, India",Baramati,Electronics Manufacturing,Manufacturer,18.1777301,74.6058204,096894 54007,,5,1
Balaji Fabricators,"5HMP+CC7, Tandulwadi, Baramati, Maharashtra 413133, India",Baramati,General Manufacturing,Manufacturer,18.18353,74.5860398,,,5,2
Balaji Glass & Aluminium Works,"Indapur Rd, motibag, Baramati, Maharashtra 413102, India",Baramati,General Manufacturing,Manufacturer,18.1455802,74.5927174,098812 66265,http://www.balaliglass.in/,4.6,16
BALAJI TRADERS,"Shop No 5, Ambika Nagar, Pushpak Apartment, Baramati, Maharashtra 413102, India",Baramati,Food Processing,Manufacturer,18.1578932,74.5885822,077208 86360,,5,3
Baramati Agro Chiken Limited,"Shop No 5, MIDC, Moshi, Pune, Pimpri-Chinchwad, Maharashtra 411062, India",Baramati,Food Processing,Manufacturer,18.6822342,73.8343383,093255 32715,,4,1
Baramati Agro CPP,"5MC6+G2J, Pune, Maharashtra 413133, India",Baramati,Food Processing,Manufacturer,18.1713466,74.660024,,,4.6,39
Baramati Agro Equipments,"5H7R+RGJ, Sahyog Society, Baramati, Maharashtra 413102, India",Baramati,General Manufacturing,Manufacturer,18.1645769,74.5912681,098507 08919,,4.3,34
Baramati Agro Ltd,"4JM8+73M, Pimpali Road, Baramati Tehsil, Pimpali, Maharashtra 413102, India",Baramati,Food Processing,Manufacturer,18.1332176,74.6152294,02112 663 100,http://www.baramatiagro.com/,4.2,745
Baramati Agro Ltd Cosmetic Division,"G-382, Dist:, Baramati Midc, Maharashtra Industrial Development Corporation Area, Tal:, Baramati, Katphal, Maharashtra 413133, India",Baramati,Pharmaceutical Manufacturing,Manufacturer,18.2288929,74.6060948,095072 20722,,4.4,9
Baramati Agro Ltd Sugar Factory,"Bhigwan, Maharashtra 413130, India",Baramati,Food Processing,Manufacturer,18.2707459,74.6705853,020 6748 2800,https://www.baramatiagro.com/baramati-agro-sugar,4.6,55
Baramati Automobiles,"Shivaji Chowk, Near, Phaltan - Baramati Rd, near Shivaji Chowk, Samarth Nagar, Baramati, Pahunewadi, Maharashtra 413102, India",Baramati,Automobile Manufacturing,Manufacturer,18.1114785,74.5357182,,,,
Baramati Automotive,"4HV9+7RC, Baramati - Nira Rd, Sathe Nagar, Kasba, Baramati, Maharashtra 413102, India",Baramati,Automobile Manufacturing,Manufacturer,18.1431775,74.5695309,,,5,1
Baramati Car Decor,"Vitthal Vihar, RUI Pati, Road, Baramati Midc, Bhigvan, Baramati, Maharashtra 413133, India",Baramati,Automobile Manufacturing,Manufacturer,18.1831812,74.6112202,099214 31616,,5,5
Baramati Cattlefeeds Pvt Ltd Baramati,"near by Piaggio vehicle company, Maharashtra Industrial Development Corporation Area, Baramati, Maharashtra 413133, India",Baramati,Automobile Manufacturing,Manufacturer,18.2070817,74.6076624,,http://hindustanfeeds.com/,4.3,30
BARAMATI CHICKEN SHWARAMA,"vidya cornar complax, Maharashtra Industrial Development Corporation Area, Baramati, Maharashtra 413133, India",Baramati,Food Processing,Manufacturer,18.1785417,74.6082608,,,4,21
Baramati Electricals Engineers And Hardware,"Gat No.6, Vanjarwadi, Baramati-Bhigwan Rd, Maharashtra Industrial Development Corporation Area, Shiva Nagar, Baramati, Sawal, Maharashtra 413133, India",Baramati,Electronics Manufacturing,Manufacturer,18.2019347,74.626328,,,4.3,20
Baramati Engineering Pvt. Ltd,"5H7W+WFX, Bhigwan Rd, Shiva Nagar, Baramati, Maharashtra 413102, India",Baramati,Mechanical Engineering,Manufacturer,18.164864,74.5962344,,,5,6
Baramati Food & Beverages,"E 128, Industrial, Maharashtra Industrial Development Corporation Area, Baramati, Maharashtra 413133, India",Baramati,Pharmaceutical Manufacturing,Manufacturer,18.2079568,74.6127605,096651 90111,http://baramatifoods.com/,4.5,22
Baramati Foods Private Limited,"G-Block Plot No - G 46, Maharashtra Industrial Development Corporation Area, Baramati, Gojubavi, Maharashtra 413133, India",Baramati,IT Services,Manufacturer,18.232281,74.5989989,,,4,2
Baramati Hitech Textile Park Ltd,"5JX8+H7J, Shatrunjay Cinema Road, Taluka, Baramati, Maharashtra 413133, India",Baramati,General Manufacturing,Manufacturer,18.1989607,74.6156514,02112 244 712,http://www.bhtpl.com/,4.4,93
"Baramati Industrial Services Private Limited,","D-16, Baramati Midc, Baramati, Maharashtra 413133, India",Baramati,Automobile Manufacturing,Manufacturer,18.1794381,74.6051245,090110 51183,http://baramatiinds.com/,,
BARAMATI METALLURGICAL PVT. LTD,"E-47, opposite Bharat Forge Material Gate, Baramati Midc, Baramati, Maharashtra 413133, India",Baramati,IT Services,Manufacturer,18.1794381,74.6051245,091759 99012,https://baramatimetallurgical.com/,1,1
Baramati Plastic and Enterprises,"Jalochi, Pimpali Rd, near CNG Pump, Baramati, Maharashtra 413102, India",Baramati,Plastic Manufacturing,Manufacturer,18.1425717,74.6151833,083297 43402,,5,1
BARAMATI PROCESS AUTOMATION-BAPA,"5JJ8+FMH, Rui Rd, Vidya Nagari, Baramati, Maharashtra 413133, India",Baramati,General Manufacturing,Manufacturer,18.1811375,74.6167289,,,5,2
Baramati Scale Company,"shop.no.F32, Sanskrit Kendra Shopping Center, near by Dr.Babasaheb Ambedkar Stadium, Samarth Nagar, Baramati, Maharashtra 413102, India",Baramati,Electronics Manufacturing,Manufacturer,18.1482527,74.5755476,099754 52996,,5,2
Baramati textile market.,"5H5P+V7M, Vasant Nagar, Pushpak Apartment, Baramati, Maharashtra 413102, India",Baramati,General Manufacturing,Manufacturer,18.1597011,74.5856793,,,3.2,13
BARAMATI TRACTORS(????????? ?????????? ????? ?????),"Bhigwan Rd, behind yamaha showroom, Shiva Nagar, Baramati, Maharashtra 413102, India",Baramati,Automobile Manufacturing,Manufacturer,18.1642107,74.5882283,098228 71429,,3.9,7
BARRY CALLEBAUT COCOA & CHOCOLATE INGREDIENTS INDIA PRIVATE LIMITED,"Plot No.- G, 197, Maharashtra Industrial Development Corporation Area, Baramati, Gojubavi, Maharashtra 413133, India",Baramati,Food Processing,Manufacturer,18.2317074,74.6028627,022 4047 6606,https://www.barry-callebaut.com/en-IN,4.4,133
Bauli India Bakes & Sweets Pvt Ltd - Factory,"G-146/1, Katphal Road, MIDC, Baramati, Maharashtra 413133, India",Baramati,Food Processing,Manufacturer,18.234956,74.604894,1800 123 0481,http://www.bauli.in/,4,67
Bhagat Ss Industries,"midc, Plot No.A-12, Baramati Midc, Baramati, Maharashtra 413133, India",Baramati,IT Services,Manufacturer,18.1794381,74.6051245,,,,
BHAGWAN PACKAGING INDUSTRY,"Unnamed Road, Maharashtra Industrial Development Corporation Area, Katphal, Gojubavi, Maharashtra 413133, India",Baramati,General Manufacturing,Manufacturer,18.2339206,74.6037347,,,3.8,5
Bhagyashree Electronics & Electricals,"4HXF+QJX Bhagyashree Electronics & Electricals, Station Rd, Shubash Chawk, Baramati Rural, Baramati, Maharashtra 413102, India",Baramati,General Manufacturing,Manufacturer,18.1494979,74.5741146,,,,
BHAIRAVNATH CHEMICALS,"Gat No. 166, Patas Baramati Rd, Hinganigada, Daund, Pune, Maharashtra 412219, India",Baramati,Chemical Processing,Manufacturer,18.3593745,74.4824547,099608 67424,http://www.bhairavnathchemicals.com/,,
Bharat Forge Limited,"Maharashtra Industrial Development Corporation Area, Baramati, Maharashtra 413133, India",Baramati,Automobile Manufacturing,Manufacturer,18.2001108,74.6067961,,http://www.bharatforge.com/,3.9,98
Bharat Ice Factory,"Industrial Estate, Plot A2/1, Bhigwan Rd, Kanchannagar, Shiva Nagar, Baramati, Maharashtra 413102, India",Baramati,Electronics Manufacturing,Manufacturer,18.1666275,74.5960557,094225 13568,https://m.facebook.com/Bharaticefactory/,3,2
Bharati Infotech,"Kalyani Corner, Plot No R-148 Annapurna Niwas Kalyani Corner, near New RTO Office, Aadarsh Nagar, Baramati, Maharashtra 413133, India",Baramati,Electronics Manufacturing,Manufacturer,18.1836632,74.5983361,086000 86022,,4.7,88
Bhigwan road ruipati,"5JP6+3C9, Rui Rd, Ghadgewasti, Vidya Nagari, Baramati, Maharashtra 413133, India",Baramati,Logistics & Warehousing,Manufacturer,18.1851663,74.611094,095798 11714,,,
Bhushan Dhavan Developers,"Pragatinagar, Baramati, Maharashtra 413102, India",Baramati,General Manufacturing,Manufacturer,18.1677552,74.5860995,,http://bhushandhavandevelopers.com/,4.9,41
Bit Electronic System,"Chandra Vijay Housing society, B-1, TC College Rd, Avaduth Nagar, Baramati, Maharashtra 413102, India",Baramati,Electronics Manufacturing,Manufacturer,18.1565206,74.5742932,097678 90560,http://www.projectpoint.co.in/,4.5,13
Bitworld solution,"3, second floor, vidya corner, chouk, Maharashtra Industrial Development Corporation Area, Baramati, Maharashtra 413133, India",Baramati,IT Services,Manufacturer,18.2032766,74.6074911,077090 97781,,5,2
BK Traders & Company,"C-31, near bharat forge, Baramati Midc, Baramati, Maharashtra 413133, India",Baramati,Mechanical Engineering,Manufacturer,18.1958464,74.6067357,094223 11993,http://bktraders.co.in/,4.2,33
Borana Distributors,"Shakti Plaza Complex, Ram Galli, Baramati, Maharashtra 413102, India",Baramati,Logistics & Warehousing,Manufacturer,18.1474601,74.5734492,02112 221 821,,4.7,9
Briliancy Electrical services,"Suryanagari, Harsh Icon, opposite Mota Nagar, Maharashtra Industrial Development Corporation Area, Baramati, Maharashtra 413133, India",Baramati,General Manufacturing,Manufacturer,18.1751806,74.6060604,,,,
Burhani Machinery Stores,"Cinema Road, near Mota collection, Baramati, Maharashtra 413102, India",Baramati,Food Processing,Manufacturer,18.1484463,74.5746649,02112 225 796,,4.1,23
Burhani Packaging.,"G-357, Maharashtra Industrial Development Corporation Area, Baramati, Maharashtra 413133, India",Baramati,General Manufacturing,Manufacturer,18.2280327,74.606543,098239 71552,,,
Capovitez Pvt Ltd,"Maharashtra Industrial Development Corporation Area, Baramati, Maharashtra 413133, India",Baramati,IT Services,Manufacturer,18.1966957,74.6073764,,,4.4,27
Car Computerized Service,"Jejuri - Morgaon - Baramati Rd, near Royal Enfield Showroom, Jamdar Nagar, Kasba, Baramati, Maharashtra 413102, India",Baramati,Automobile Manufacturing,Manufacturer,18.1458516,74.5671806,099704 25824,,5,1
CARE CHEM ENTERPRISES,"SHOP NO. 03, NEW, Tandulwadi Rd, Beldar Patil Mala, Tandulwadi, Baramati, Maharashtra 413102, India",Baramati,Chemical Processing,Manufacturer,18.1728248,74.5840895,096891 71577,,4.5,2
Carlo Fashions - Men's Wear,"Unnamed Road, Bayaji Nagar, Maharashtra Industrial Development Corporation Area, Baramati, Maharashtra 413133, India",Baramati,General Manufacturing,Manufacturer,18.1842736,74.6032365,072630 72222,,4.9,12
Carver Aircraft Maintenance Engineering College,"Airport, Baramati, Gojubavi, Maharashtra 413133, India",Baramati,Mechanical Engineering,Manufacturer,18.2237816,74.593948,088558 87088,https://www.carverame.in/,4.9,50
Chaitanya Electrical,"Shop. No 1, Near, Sai Nagar, Baramati Midc, Maharashtra Industrial Development Corporation Area, Viman Nagar, Pune, Baramati, Maharashtra 413133, India",Baramati,General Manufacturing,Manufacturer,18.2040987,74.6078344,098817 71188,,,
Chaitanya Industries - Top Cattle Feed Plant & Poultry Feed Plant Manufacturer,"E 198, Dist, Maharashtra Industrial Development Corporation Area, Baramati, Maharashtra 413133, India",Baramati,Mechanical Engineering,Manufacturer,18.2052353,74.6100237,098227 56024,,4.1,11
Chalo Phir Tours And Travels,"5HPW+CC, Tandulwadi, Baramati, Maharashtra 413133, India",Baramati,Logistics & Warehousing,Manufacturer,18.1860302,74.5960086,081085 23699,,5,1
Chandan Distributors,"Nevse Rd, Baramati, Maharashtra 413102, India",Baramati,Pharmaceutical Manufacturing,Manufacturer,18.1505057,74.5738428,091585 88188,,3.6,5
Chandgude Electrical,"Burud Galli, Baramati, Maharashtra 413102, India",Baramati,General Manufacturing,Manufacturer,18.1522861,74.5710862,099702 05819,,,
Chandrakala Tradition - Fashion Jewelry & Premium Purses,"Subhadra Mall, opposite Reliance Smart Chandrakala, Baramati Midc, Baramati, Maharashtra 413133, India",Baramati,General Manufacturing,Manufacturer,18.1782078,74.6061035,093226 80323,https://chandrakala-tradition.mini.store/,5,40
Chankeshwara Automotive,"E177 & E178, behind Piaggio Vehicles Pvt. Ltd, Maharashtra Industrial Development Corporation Area, Baramati, Maharashtra 413133, India",Baramati,Automobile Manufacturing,Manufacturer,18.2101231,74.6116138,089560 68105,,4.1,7
Chetan Electronics And Electrical,"Burud Galli, Irrigation colony, Malegoan, Baramati, Maharashtra 413102, India",Baramati,Electronics Manufacturing,Manufacturer,18.149912,74.573932,098341 97619,,4.7,39
Chettinad Cement Godown,"3, Ring Rd, Pushpak Apartment, Baramati, Maharashtra 413102, India",Baramati,Logistics & Warehousing,Manufacturer,18.159037,74.5873291,,,5,1
CHHAJED GARMENTS,"Gandhi Chowk, Near, Station Rd, opp. J. B Saraf, Baramati, Maharashtra 413102, India",Baramati,General Manufacturing,Manufacturer,18.1488335,74.5723624,02112 224 540,,4.4,23
ChillaX Chaat,"Balaji Square, Bhigwan, Baramati Road, near Balaji Square, MIDC, Baramati, Maharashtra 413133, India",Baramati,Food Processing,Manufacturer,18.1816405,74.6091588,096655 33833,,4.9,8
Chinmay industries G 380 midc baramati,"G 380, near piaggio vespa, Maharashtra Industrial Development Corporation Area, Baramati, Katphal, Maharashtra 413133, India",Baramati,Automobile Manufacturing,Manufacturer,18.228824,74.605582,,,3.9,7
Chintamani Bhel,"Plot No P46, Vishwakarma Society, 2, Jalochi Rd, opposite Piaggio Vehicles Pvt Ltd, Vidyanagari, Maharashtra Industrial Development Corporation Area, Baramati, Maharashtra 413133, India",Baramati,Food Processing,Manufacturer,18.1767226,74.6103993,080821 83438,,4.1,211
CloudRegex Infotech Pvt Ltd,"Abhimanyu Corner, SR Icon, Vidya Nagari, Baramati, Maharashtra 413133, India",Baramati,Electronics Manufacturing,Manufacturer,18.1795779,74.6136384,089999 51727,https://cloudregex.com/,4.9,24
Coretech Computer Institute,"Shop No. 13, Patil Plaza, Corner, Jalochi Rd, near Dynamix Colony, Suryanagari, Baramati, Maharashtra 413133, India",Baramati,Electronics Manufacturing,Manufacturer,18.1730411,74.6070374,090110 84811,http://www.vssoftwarelab.com/,4.5,230
Coromandel Godown,"5JW4+3WR, Maharashtra Industrial Development Corporation Area, Baramati, Maharashtra 413133, India",Baramati,Logistics & Warehousing,Manufacturer,18.1952399,74.6073408,,,5,1
Cotton King Manufacturing And Factory outlet,"Maharashtra Industrial Development Corporation Area, Baramati, Maharashtra 413133, India",Baramati,General Manufacturing,Manufacturer,18.1966986,74.6145781,,,4.2,642
Crazy Rolls Cafe & Snacks,"P-34 Arjun pride hotel bank of Maharashtra Pune bhigwan road, Baramati Midc, Maharashtra Industrial Development Corporation Area, Baramati, Maharashtra 413133, India",Baramati,Food Processing,Manufacturer,18.1824181,74.6088677,,,4.5,27
Croma - Baramati,"Ground Floor, GG Prime Square, Baramati Bhigwan Road, Shiva Nagar, Baramati, Maharashtra 413102, India",Baramati,Electronics Manufacturing,Manufacturer,18.1626071,74.5908733,089769 11836,https://store.croma.com/croma-baramati-electronics-retail-and-repair-shop-baramati-bhigwan-road-baramati-263563/Home,4.8,8271
CROZOM POWERTECH,"Bhigwan Rd, near urja bhawan, Sahyog Society, Baramati, Maharashtra 413102, India",Baramati,Electronics Manufacturing,Manufacturer,18.166924,74.5921641,090214 88593,,,
"Curiosity Automation - Best for Software, Website and Android App Development and Digital Marketing Company Baramati Pune","4th Floor, Vidya Corner Super Market, Ghadage Academy, Pencil Chowk, Maharashtra Industrial Development Corporation Area, Baramati, Maharashtra 413133, India",Baramati,Electronics Manufacturing,Manufacturer,18.1786311,74.6078578,088061 00505,http://curiosity.org.in/,5,1
CURIOSITY AUTOMATION (OPC) PRIVATE LIMITED,"Shrikant Sanjay Ghadage Sindhukrupa Bungalow, near Ganesh Mandir A/p Sansar, Baramati, Maharashtra 413104, India",Baramati,General Manufacturing,Manufacturer,18.1134858,74.7027926,088061 00505,https://curiosity.org.in/,2,1
Cybexonics IT Consultants,"Pencil Chowk, Baramati, Maharashtra 413133, India",Baramati,Electronics Manufacturing,Manufacturer,18.1775893,74.6071552,096049 02393,http://www.cybexonics.com/,5,2
D.P.ENGINEERS,"G-316, Baramati Midc, Maharashtra Industrial Development Corporation Area, Baramati, Katphal, Maharashtra 413133, India",Baramati,Mechanical Engineering,Manufacturer,18.2278225,74.6036945,,,5,2
Daksh Enterprises,"Gavasane Square, Kanchannagar, Shiva Nagar, Baramati, Maharashtra 413102, India",Baramati,General Manufacturing,Manufacturer,18.1682095,74.5964277,088884 56788,https://havells.com/,,
Darja biryani house,"vidya cornar complax, Maharashtra Industrial Development Corporation Area, Baramati, Maharashtra 413133, India",Baramati,Food Processing,Manufacturer,18.1786922,74.608043,095278 59103,,4.2,81
Date Milk & Food Products,"besides Morpant Smarak, Date Milk And Food Products, Siddheshwar Galli, near SIDDHESHWAR TEMPLE, Baramati, Maharashtra 413102, India",Baramati,Food Processing,Manufacturer,18.14629,74.5711694,,,4.9,10
Deccan Mechanical & Chemical Ind. Pvt. Ltd.,"Plot No. F-20, MIDC, Near Real Dairy Industries Pvt. Ltd., Baramati, Dist - Pune., Maharashtra 413133, India",Baramati,Mechanical Engineering,Manufacturer,18.224384,74.603947,02112 243 835,http://www.demechindia.com/,5,1
Delta Elevators & Erectors,"52, Baramati Bhigwan Road, Shri Ram Nagar, Shivdatta Apartment, Ashok Nagar Colony, Baramati, Maharashtra 413102, India",Baramati,Automobile Manufacturing,Manufacturer,18.1618812,74.5953595,,,4.9,70
DELTA ENGINEERING,"W22, Maharashtra Industrial Development Corporation Area, Baramati, Maharashtra 413133, India",Baramati,Mechanical Engineering,Manufacturer,18.1824589,74.6041947,094220 15840,http://www.orificenozzleventuri.com/,5,4
Demech Chemical Products Pvt Ltd,"Plot No. D51, Maharashtra Industrial Development Corporation Area, Baramati, 413133, India",Baramati,Mechanical Engineering,Manufacturer,18.204092,74.6078344,082402 81662,https://www.demechchemical.com/,4,1
DESIRE AGRO INDUSTRIES,"6HHX+7R8, Maharashtra Industrial Development Corporation Area, Katphal, Gojubavi, Maharashtra 413133, India",Baramati,Logistics & Warehousing,Manufacturer,18.2281678,74.5995743,,,,
Devade Motors Baramati (????? ?????? ???????) Car Bazar,"zayka hotel, Baramati Indapur Road, canol, near Baramati, motibag badhalwadi, Maharashtra 413102, India",Baramati,Automobile Manufacturing,Manufacturer,18.1416942,74.5997804,095528 09409,https://www.facebook.com/groups/1188237008218829/,4,25
Dhara Milking Machine Company,"opposite to Surya Hotel, near Dynamix Dairy, Maharashtra Industrial Development Corporation Area, Baramati, Maharashtra 413133, India",Baramati,Mechanical Engineering,Manufacturer,18.1891243,74.6158665,,,4.3,6
Dhumal Coating Patra Company,"Nira-Baramati Road, Malegaon - Karhavagaj Rd, Baramati, Maharashtra 413115, India",Baramati,General Manufacturing,Manufacturer,18.136533,74.4918094,,,5,3
DIKSHA GLASS & ALUMINIUM WORKS,"DIKSHA GLASS AND ALUMINIUM WORKS, Bhigwan Rd, near Yes Bank, Sahyog Society, Baramati, Maharashtra 413102, India",Baramati,General Manufacturing,Manufacturer,18.162473,74.5885708,083905 15955,,4.6,17
Dip Dharm Sarees,"Nevse Rd, Vivekanand Nagar, Baramati, Maharashtra 413102, India",Baramati,General Manufacturing,Manufacturer,18.1488211,74.5723807,098508 30598,http://www.dipdharmsarees.com/,4.6,18
Disha Computer Institute Baramati,"2nd Floor, Muttha Building, Canal Rd, near Sakalp Stationary Nira, Baramati, Maharashtra 413102, India",Baramati,IT Services,Manufacturer,18.1508186,74.5782229,077209 61234,http://www.dishagroup.in/,4.9,809
Divya Engineering,"Plot E223, Maharashtra Industrial Development Corporation Area, Baramati, 413133, India",Baramati,General Manufacturing,Manufacturer,18.2084634,74.6090508,,,,
DIVYARATNA INDUSTRIES PRIVATE LIMITED,"E Block 118/119, near piaggio vehicles ltd, Maharashtra Industrial Development Corporation Area, Baramati, Maharashtra 413133, India",Baramati,Automobile Manufacturing,Manufacturer,18.2073488,74.6105002,,http://www.waferskart.com/,5,1
Dorsogna Sweet Ingredients Pvt Ltd,"5JV5+J23, Unnamed Road, Bayaji Nagar, Maharashtra Industrial Development Corporation Area, Baramati, Maharashtra 413133, India",Baramati,IT Services,Manufacturer,18.1940034,74.6075469,,,4.7,16
Dream Plast India Pvt Ltd,"F17 Katphal, Maharashtra Industrial Development Corporation Area, Baramati, Maharashtra 413133, India",Baramati,Plastic Manufacturing,Manufacturer,18.204092,74.6078344,02112 662 000,https://www.dreamplast.com/,3.3,6
Dream Plast India Pvt Ltd (DP5),"F/17-1, Village- Katphal,, MIDC, Baramati, behind Ferrero India Ltd, Pune, Maharashtra 413133, India",Baramati,Plastic Manufacturing,Manufacturer,18.220531,74.6057008,,http://www.plasticlegno.com/,4.1,11
Duck Infotech,"Kashivishweshor Mandir, Road, Kasba, Baramati, Maharashtra 413102, India",Baramati,IT Services,Manufacturer,18.1457955,74.5687559,090225 82481,http://duckinfo.rf.gd/,5,6
Eco Solar Solutions,"4th Floor, Office no 44, KK Market, Dhankawadi, Pune, Maharashtra 411043, India",Baramati,Renewable Energy,Manufacturer,18.4698207,73.8600574,091194 95908,https://ecosolarindia.in/,4.9,193
Eicher Tractors Dealerships - Gholap Autolines,"Maharashtra State Highway 221, 30, Ganesh market, Samarth Nagar, Baramati, Maharashtra 413102, India",Baramati,Automobile Manufacturing,Manufacturer,18.1451373,74.5955371,080 4013 8113,https://dealers.eichertractors.in/eicher-tractors-gholap-autolines-in-maharashtra-baramati-samarth-nagar-75233/Home?utm_source=gmbeicher&utm_medium=googlewebsite,4.6,10
Ekart Logistics Baramati,"5JJ5+WM3, Baramati, Maharashtra 413133, India",Baramati,Logistics & Warehousing,Manufacturer,18.182261,74.6091589,,,2.9,159
Elastonex Rubber Products,"G - 347, Piaggio Vespa Road, Maharashtra Industrial Development Corporation Area, Baramati, Katphal, Maharashtra 413133, India",Baramati,General Manufacturing,Manufacturer,18.2279637,74.6051096,,,,
Electrical house wiring and colour Painter,"5JM6+P2C, Vithai building wadkar colani, Tandulwadi Rd, Baramati, Maharashtra 413133, India",Baramati,General Manufacturing,Manufacturer,18.1843217,74.6100034,,,5,1
ELight plant,"5H8W+CX8, Kanchannagar, Shiva Nagar, Baramati, Maharashtra 413102, India",Baramati,Logistics & Warehousing,Manufacturer,18.1660363,74.5974442,,,,
Emu Sports Baramati,"5H6J+3F2, Vivekanand Nagar, Baramati, Maharashtra 413102, India",Baramati,General Manufacturing,Manufacturer,18.1601875,74.5811875,091376 51434,http://emusports.in/,5,2
Enforce Engineering Solutions (P) Ltd.,"C-96, near Dynamix Dairy, Maharashtra Industrial Development Corporation Area, Baramati, Maharashtra 413133, India",Baramati,Mechanical Engineering,Manufacturer,18.193609,74.6098625,094238 63655,,4.5,6
Enicar Pharmaceuticals Pvt Ltd,"J-214/215/216, M.I.D.C. Tarapur, Boisar, Maharashtra 401506, India",Baramati,Pharmaceutical Manufacturing,Manufacturer,19.7899873,72.7544655,02525 661 095,https://www.enicarpharma.com/,4.3,16
Executive Online,"Office No 108, City Inn Chowk, Dhale Sangvi Icon, Baramati Bhigwan Road, Vishwakarma Society, Baramati, Maharashtra 413133, India",Baramati,IT Services,Manufacturer,18.1757987,74.604807,094057 32214,https://www.executiveonline.in/,4.9,31
Extreme Build-Tech Systems,"Plot No G-9 MIDC Baramati Tal, Dist, Baramati, Pune, Maharashtra 413133, India",Baramati,Mechanical Engineering,Manufacturer,18.2317123,74.5969793,,http://www.extremeempires.com/,5,53
FAMOUS MOTOR GAREJ,"Piaggio company, near Suyash automobile, near PUNE, Maharashtra Industrial Development Corporation Area, Baramati, Maharashtra 413133, India",Baramati,Automobile Manufacturing,Manufacturer,18.2056904,74.6056617,089990 12975,https://famousmotars.blogspot.com/,,
FARMER’S BEST,"Rushitek (Madane wasti, Tal, Pimpali, Baramati, Maharashtra 413102, India",Baramati,Food Processing,Manufacturer,18.144102,74.6258745,093703 64643,,5,8
Feelsofts,"Mahalaximi Complex, Hall No-4, Bhigwan Road, Baramati, Maharashtra 413102, India",Baramati,Electronics Manufacturing,Manufacturer,18.1640575,74.5884622,02112 225 227,http://www.feelsofts.com,4.8,38
Ferrero Bharat Pvt. Ltd.,"Plot No. F-13, Maharashtra Industrial Development Corporation Area, Baramati, Maharashtra 413133, India",Baramati,Mechanical Engineering,Manufacturer,18.2179757,74.6012834,02112 662 100,https://www.ferreroindia.com/,4.4,817
Flares- Solar PV Systems,"Anand Industrial Corporation, Plot No - P3, Gajanan Colony, MIDC, Ahilyanagar, Maharashtra 414111, India",Baramati,Renewable Energy,Manufacturer,19.1543941,74.6987453,083710 02000,https://flaressolar.com/,4.8,43
Fox Automation,"Shop No1, Morya Bulding, 2, Rui Rd, Maharashtra Industrial Development Corporation Area, Vidya Nagari, Baramati, Maharashtra 413133, India",Baramati,General Manufacturing,Manufacturer,18.1824295,74.6160449,,,4.5,6
FREEZE DRIED CAFUNE FOODS,"G82, Maharashtra Industrial Development Corporation Area, Baramati, Gojubavi, Maharashtra 413133, India",Baramati,Food Processing,Manufacturer,18.2319248,74.5999501,090224 98067,http://www.cafunefoods.com/,5,24
Fusion Infinity Solutions,"Shop No.309, 4th floor, Pencil Square, Bhigwan Rd, Opposite to V.P.College Near Bharne moters Baramati, 413133, Baramati, Maharashtra 413133, India",Baramati,Electronics Manufacturing,Manufacturer,18.182469,74.6098444,078750 54345,http://fusiongroupofindustries.com/index.php,4.8,108
G K ELECTRICALS AND COMPANY,"D-24, AIRPORT RD, Maharashtra Industrial Development Corporation Area, Baramati, Maharashtra 413133, India",Baramati,General Manufacturing,Manufacturer,18.1905627,74.6026186,,,,
Gajanan Agro feeds Pvt. Ltd,"6J25+XHP, Unnamed Road, Maharashtra Industrial Development Corporation Area, Baramati, Maharashtra 413133, India",Baramati,Food Processing,Manufacturer,18.2024686,74.6089653,,,3.4,14
Gblue Technology Pvt. Ltd,"G-120, Maharashtra Industrial Development Corporation Area, Baramati, Gojubavi, Maharashtra 413133, India",Baramati,Automobile Manufacturing,Manufacturer,18.2323748,74.6007026,094038 92430,https://www.gbluetechnology.com/,,
Genelec batteries,"Samarth Nagar, Baramati, Maharashtra 413102, India",Baramati,Automobile Manufacturing,Manufacturer,18.1484235,74.5757552,094235 79313,,4.7,13
Genericart Medicine Store | Baramati Swast Aushadhi Seva | Pune,"Gat No 16/1, Harikrupa Nagar, Plot No 11, Gr Flr, PBK Heights, near Devkate Hospital, Baramati, Pune, Maharashtra 413102, India",Baramati,Pharmaceutical Manufacturing,Manufacturer,18.146118,74.5821752,077096 35508,https://franchise.genericartmedicine.com/genericart-medicine-store-baramati-generic-medical-store-pharmacy-baramati-baramati-409790,4.8,20
Genericart Medicine Store | Yashodeep Swast Aushadhi Seva | Pune,"Shree Ram Udyog Bhavan, Baramati Bhigwan Road, near Old Yamaha Showroom, Sahyog Society, Pune, Baramati, Maharashtra 413102, India",Baramati,Pharmaceutical Manufacturing,Manufacturer,18.1639844,74.5904078,073505 40319,https://franchise.genericartmedicine.com/genericart-medicine-store-yashodeep-swast-aushadhi-seva-pharmacy-baramati-baramati-312380,5,4
Genius Technical Services,"Industrial development Corporation, Plot number E-137&138, Maharashtra Industrial Development Corporation Area, Baramati, Maharashtra 413133, India",Baramati,General Manufacturing,Manufacturer,18.2086023,74.6112349,,,4.9,16
GILS PVT LTD,"Office No.16, Baramati Bhigwan Road, Anand Nagar Colony, Baramati, Maharashtra 413102, India",Baramati,Logistics & Warehousing,Manufacturer,18.1578714,74.5836957,070281 62589,https://www.gilspvtltd.com/,4.2,21
GIMATEX INDUSTRIES PVT LTD,"HR2J+MRW Ram mandir ward, Dag Borkhedi, Hinganghat, Maharashtra 442301, India",Baramati,General Manufacturing,Manufacturer,20.5511745,78.8319264,080 4764 3407,https://www.gimatex.in/,4.3,180
Girish Polychem Industries,"E-88 MIDC,, Baramati, Maharashtra 413133, India",Baramati,Pharmaceutical Manufacturing,Manufacturer,18.2029103,74.6113617,02112 243 189,,4.1,7
GK AGRITECH MANUFACTURING PLANT,"D/40, near RTO Office, Maharashtra Industrial Development Corporation Area, Baramati, Maharashtra 413133, India",Baramati,Mechanical Engineering,Manufacturer,18.1854211,74.6019889,098507 08919,,5,11
"Godrej Agrovet Ltd., Baramati","Maharashtra Industrial Development Corporation Area, Baramati, Maharashtra 413133, India",Baramati,IT Services,Manufacturer,18.1816863,74.6073885,,,4.1,27
Gopala Kraft Pack Pvt.Ltd.,"6HHW+WXM, Maharashtra Industrial Development Corporation Area, Baramati, Gojubavi, Maharashtra 413133, India",Baramati,General Manufacturing,Manufacturer,18.2297703,74.5974376,02112 243 701,,3.7,3
Gorura Agro Industries Pvt Ltd,"Plot No. G-36 Midc Baramati, Baramati, Maharashtra 413133, India",Baramati,Chemical Processing,Manufacturer,18.1823999,74.6096912,,,5,5
Gourav Engineers,"W-32/33, Maharashtra Industrial Development Corporation Area, Baramati, Maharashtra 413133, India",Baramati,Mechanical Engineering,Manufacturer,18.1836027,74.6036191,02112 244 371,https://www.gouravgroup.com/gourav-engineers.php,4.5,37
GOURAV INDUSTRIES BUILDING SYSTEMS PRIVATE LIMITED,"Plot No F 10 11 MIDC Baramati, Dist, Pune, Maharashtra 413133, India",Baramati,IT Services,Manufacturer,18.1791791,74.6077971,,http://www.gouravgroup.com/,2,1
Gourav Industries Building Systems Pvt Ltd,"Tushar No. 416/13, Raghuvir Society, Near Shiv Shankar, Sabhagraha, Mukund Nagar, Mukund Nagar Raghuvir Society Pune, Maharashtra Industrial Development Corporation Area, Maharashtra 413133, India",Baramati,General Manufacturing,Manufacturer,18.1929022,74.6112557,083904 56000,https://www.gouravgroup.com/,5,4
Green Surface Coating India Pvt Ltd,"R-18,MIDC,Baramati., near Vidya Pratishthan, Baramati, Maharashtra 413133, India",Baramati,Chemical Processing,Manufacturer,18.177326,74.608714,070200 04174,https://www.greensurface.in/,5,7
Green World Agrotech,"Gat No.105, Choudharwadi, Maharashtra Industrial Development Corporation Area, Baramati, Maharashtra 413133, India",Baramati,Food Processing,Manufacturer,18.2056888,74.6113472,097673 39909,,4.7,42
Greenfield Agrichem Industries Pvt. Ltd,"Plot No. 1969/03, Taradgaon, Phaltan, Maharashtra 415528, India",Baramati,Chemical Processing,Manufacturer,18.0323916,74.2666378,,http://www.greenfieldgroup.co.in/,4.1,14
Grind Tech Systems-Internal/Surface/Cylindrical Grinding Machine Manufacturers/Exporters In Pune|MH,"Gat No.-554, Mahindra Gate, Near, No.-8, Chakan, Khed, Nighoje, Pune, Maharashtra 410501, India",Baramati,Mechanical Engineering,Manufacturer,18.710702,73.8051435,099220 84515,https://www.grindtechindia.com/,5,5
GTN Baramati,"d49, Maharashtra Industrial Development Corporation Area, Baramati, Maharashtra 413133, India",Baramati,Mechanical Engineering,Manufacturer,18.204092,74.6078344,084119 59726,,3.7,19
Gugale Electricals & Hardware,"PLOT A2/3 BARAMATI SAHKARI AUDYOGIK VASAT, Baramati, Maharashtra 413102, India",Baramati,Electronics Manufacturing,Manufacturer,18.1662758,74.594734,098223 13438,,4.6,18
Gunina Consultancy Services,"BSNL Office, Plot PAP 3/28, behind MIDC, Maharashtra Industrial Development Corporation Area, Baramati, 413133, India",Baramati,IT Services,Manufacturer,18.1825444,74.6036914,,,5,1
H. T. Electrical Work,"5JH4+Q3C, Baramati Midc, Pune, Baramati, Maharashtra 413133, India",Baramati,General Manufacturing,Manufacturer,18.1794417,74.605125,098237 02691,,,
H.M.TRADERS (BARAMATI),"Shree Amey, Shop No.1, Behind Samayak Lifestyle,, Bhigwan Rd, Baramati, Maharashtra 413102, India",Baramati,General Manufacturing,Manufacturer,18.1610662,74.5860004,094220 20113,http://www.hmtraders.co.in/,4.7,10
Harshad Packwell Pvt.Ltd.,"Harshad Pack well Pvt Ltd, Bayaji Nagar, Maharashtra Industrial Development Corporation Area, Baramati, Maharashtra 413133, India",Baramati,Electronics Manufacturing,Manufacturer,18.193281,74.6112357,02112 243 724,,4.6,10
Harshraj Energy Systems OPC Private Limited,"Office No 1, Aditya Complex, Harikrupa Nagar, Indapur Rd, Dinprabha Apartment, Baramati, Maharashtra 413102, India",Baramati,Renewable Energy,Manufacturer,18.1453132,74.5838028,,,,
Havells Galaxy Sarthak Gallery,"Sarthak Gallery, near City Inn, Maharashtra Industrial Development Corporation Area, Tambenagar, Baramati, Maharashtra 413133, India",Baramati,Electronics Manufacturing,Manufacturer,18.1773137,74.603838,088886 09979,,4.3,6
Hindavi Pharma Research and Training center,"5JP2+VFP, Maharashtra Industrial Development Corporation Area, Tandulwadi, Baramati, Maharashtra 413133, India",Baramati,Pharmaceutical Manufacturing,Manufacturer,18.1872062,74.6011973,,http://www.hindavipharma.com/,5,5
"Hindustan Packaging Industries, Baramati","Maharashtra Industrial Development Corporation Area, Baramati, Maharashtra 413133, India",Baramati,IT Services,Manufacturer,18.2034165,74.6114651,,,5,3
Hindustan Petroleum Corporation Limited,"167, 168, Gat No 165, Jalochi Rd, Baramati, Maharashtra 413133, India",Baramati,Logistics & Warehousing,Manufacturer,18.1743863,74.6022491,,,,
Hindustan Unilever Limited,"C-52, behind Dynamix Dairy, Baramati, Maharashtra 413133, India",Baramati,Automobile Manufacturing,Manufacturer,18.1945415,74.6080348,1860 210 1000,https://www.hul.co.in/,4.8,4
Hirkani Warehouse Schreiber Dynamix PVT LTD,"6J82+CVM Schreiber Dynamix PVT LTD, Hirkani Warehouse, Katphal, Maharashtra 413133, India",Baramati,Logistics & Warehousing,Manufacturer,18.2160945,74.6021689,,,3.8,16
Hi-TECH Engineering Corporation India Pvt. Ltd.,"G-17, MIDC Baramati, Maharashtra 413133, India",Baramati,General Manufacturing,Manufacturer,18.22807,74.6008491,02112 244 252,,4,5
Hi-Tech Rubber Industries,"Survey No. 30, 7/8, near Dran Engineering, Dhayari, Pune, Maharashtra 411041, India",Baramati,General Manufacturing,Manufacturer,18.4423348,73.8198862,097656 34615,http://www.hitechrubberpune.co.in/,5,1
Hydrolines - Pune Plant (Hydrolines Group),"Madhuban Industrial Park Gat No 961, MIDC Chakan MIDC, Nighoje, Maharashtra 410501, India",Baramati,IT Services,Manufacturer,18.7384953,73.8163287,,http://www.hydrolines.com/,5,1
IBG Solar India Pvt Ltd,"5H38+FFX, Khandobanagar, Baramati, Maharashtra 413102, India",Baramati,Renewable Energy,Manufacturer,18.1537348,74.5663135,,,,
IGNITION AUTO PVT.LTD.,"Baramati - Nira Rd, Laxmi Narayan Nagar, Karbhari Nagar, Baramati, Maharashtra 413102, India",Baramati,Automobile Manufacturing,Manufacturer,18.144671,74.564067,098227 51654,,4.7,18
Iindraa Besan and Dal mill,"C-6/1, Maharashtra Industrial Development Corporation Area, Baramati, Maharashtra 413133, India",Baramati,Food Processing,Manufacturer,18.1934155,74.6122036,089833 55522,,5,17
Inamdar Electricals,"5H2F+QWC, Baramati Bhigwan Road, Maharashtra Industrial Development Corporation Area, Baramati, Maharashtra 413102, India",Baramati,General Manufacturing,Manufacturer,18.1519452,74.5747524,,,,
India roadlines,"Cinema Road, near ambedkar stadium, Samarth Nagar, Baramati, Maharashtra 413102, India",Baramati,Logistics & Warehousing,Manufacturer,18.1487268,74.5755172,099601 67886,,3.1,9
Indian Laser Technik,"J block, plot no. J-540/128, near gavali mata, MIDC, Bhosari, Pune, Baramati, Maharashtra 411026, India",Baramati,Mechanical Engineering,Manufacturer,18.204092,74.6078344,,https://indianlasertechnik.com/,5,1
Indian Seamless Metal Tubes Ltd. ISMT,"75FX+2G5, Jejuri - Morgaon - Baramati Rd, Jejuri, Maharashtra 412303, India",Baramati,General Manufacturing,Manufacturer,18.2725179,74.1988555,020 4143 4100,http://www.ismt.co.in/,4.4,39
Indian Simless Metal Tube Pagardar Nokaranchi,"ISMT Limited, B13, Chowk, near Baramati Medical College, Maharashtra Industrial Development Corporati, Maharashtra Industrial Development Corporation Area, Baramati, Maharashtra 413133, India",Baramati,General Manufacturing,Manufacturer,18.1831333,74.5943092,097648 69716,https://www.ismt.co.in/,2,5
Infinity Drip,"5JV4+XW4, near venture steel, Maharashtra Industrial Development Corporation Area, Baramati, Maharashtra 413133, India",Baramati,Electronics Manufacturing,Manufacturer,18.1948763,74.6073389,098906 67490,,4.3,12
INTELSOL- Traffic & Transportation Engineering Services and Certified Road Safety Auditors,"Wing A/13, Devgiri Park, Kasba, Baramati, Maharashtra 413102, India",Baramati,General Manufacturing,Manufacturer,18.1468051,74.562673,,,5,2
Iron Craft Technology,"shop no A37, Baramati Midc, Baramati, Maharashtra 413133, India",Baramati,Mechanical Engineering,Manufacturer,18.1842005,74.6060025,083172 06248,,5,3
iStepUp Training & Placement,"3rd Floor, Anand Gold Coin Building, opposite Baramati Bus Stand, Samarth Nagar, Baramati, Maharashtra 413102, India",Baramati,IT Services,Manufacturer,18.1448485,74.5759726,095799 85123,http://istepup.in/,4.8,82
J J ENGINEERING BARAMATI,"D/35, Maharashtra Industrial Development Corporation Area, Midc Area, Baramati, Maharashtra 413133, India",Baramati,Mechanical Engineering,Manufacturer,18.1883067,74.6010214,,,,
Jagdamb Industries,"Plot No 57, Baramati - Indapur Rd, Pune, Maharashtra 413102, India",Baramati,Automobile Manufacturing,Manufacturer,18.1319685,74.6243951,,,,
Jain Electronic,"Shop 8, near Surynagari, Baramati, Maharashtra 413133, India",Baramati,Electronics Manufacturing,Manufacturer,18.1751794,74.6078349,090285 34227,,5,1
Jain Irrigation System Ltd.,"6J93+7VQ, Unnamed Road, Maharashtra Industrial Development Corporation Area, Katphal, Maharashtra 413133, India",Baramati,Logistics & Warehousing,Manufacturer,18.2182027,74.6047459,,http://www.jains.com/,3.3,9
JANAI TEXTILE,"in front of sangh petrol pump, Baramati, Maharashtra 413133, India",Baramati,General Manufacturing,Manufacturer,18.1834967,74.611597,092091 23008,,5,2
Jay Bhavani Electronics,"4HWF+JXG, Samarth Nagar, Baramati, Maharashtra 413102, India",Baramati,General Manufacturing,Manufacturer,18.1465568,74.5749481,098228 58643,,4.7,11
Jay Malhar Febrication,"Shop 5, Baramati, Maharashtra 413133, India",Baramati,Electronics Manufacturing,Manufacturer,18.1759475,74.6037836,099602 58673,,5,1
Jay Tractors,"Baramati - Indapur Rd, Pune, Maharashtra 413102, India",Baramati,Automobile Manufacturing,Manufacturer,18.1431776,74.5983667,02112 244 292,,4.4,46
Jay Vijay Industries,"A 36, Tal, Maharashtra Industrial Development Corporation Area, Baramati, Maharashtra 413133, India",Baramati,Plastic Manufacturing,Manufacturer,18.1841181,74.6019892,094225 11036,https://www.indiamart.com/jay-vijayindustries/,5,2
Jaydeep Fabrication,"5JF5+6FV, Jalochi Rd, Suryanagari, MIDC, Baramati, Maharashtra 413133, India",Baramati,General Manufacturing,Manufacturer,18.1731071,74.6086654,,,,
JB Fabrication,"Mahakaleshwar Nagar, Siya Park, Phase 3, Jalochi, Baramati, Maharashtra 413102, India",Baramati,Mechanical Engineering,Manufacturer,18.1552233,74.6090471,091124 98600,,5,26
JB Industries,"4HV7+QX7, Baramati - Nira Rd, opposite Dengle Garden, Yashwant Nagar, Kasba, Baramati, Maharashtra 413102, India",Baramati,Logistics & Warehousing,Manufacturer,18.1444036,74.5649119,070382 49696,,,
JK Construction,"Office No 04 First Floor, Classic Square, Plot Number- 71, Market Yard Rd, behind Chirayu Hospital, Shri Ram Nagar, Shivdatta Apartment, Amrai, Baramati, Maharashtra 413102, India",Baramati,General Manufacturing,Manufacturer,18.1507937,74.5821504,,,5,2
"JK Tyre Xpress Wheels, Mishrilal & Sons","Cinema Road, Kasba, Baramati, Maharashtra 413102, India",Baramati,Automobile Manufacturing,Manufacturer,18.141748,74.5676189,091678 53641,https://brandshops.jktyre.com/jk-tyre-xpress-wheels-mishrilal-sons-tyre-shop-baramati-baramati-102476/Home?utm_source=locator&utm_medium=googleplaces,4.4,32
JSW Shoppe - Shree Siddheshwar Traders,"Ground Floor, Malegaon Road, near Toll Plaza, Satav Vasti, Tapovan Colony, Baramati, Pune, Maharashtra 413102, India",Baramati,General Manufacturing,Manufacturer,18.1621994,74.578369,096190 84825,https://stores.jswsteel.in/jsw-shoppe-shree-siddheshwar-traders-shree-siddheshwar-traders-steel-iron-industry-baramati-pune-253443/Home?utm_source=locator&utm_medium=googleplaces,,
Kadriya Scrap Marchant,"Kasba, Baramati, Maharashtra 413102, India",Baramati,General Manufacturing,Manufacturer,18.1426543,74.5683704,,,5,2
Kale Cold Storage & Warehouse,"6HCR+R77, opp. Baramati Airport, Baramati, Sawantwadi, Maharashtra 413133, India",Baramati,Logistics & Warehousing,Manufacturer,18.2220354,74.5906564,,,4.5,17
Kalika Industries,"E-33 near main gate of textile park, Maharashtra Industrial Development Corporation Area, Baramati, Maharashtra 413133, India",Baramati,General Manufacturing,Manufacturer,18.1983883,74.616846,097638 36555,https://kalika-industries.com/,4.8,4
Kalpak Precision Industries,"Office No 228, Pencil Square Building, Bhigwan Rd, Kanchannagar, Shiva Nagar, Baramati, Maharashtra 413102, India",Baramati,Mechanical Engineering,Manufacturer,18.1663616,74.5965606,,,,
"KALYANI TRANSMISSION TECHNOLOGIES PVT. LTD, BARAMATI","5JM4+GF3, Maharashtra Industrial Development Corporation Area, Baramati, Maharashtra 413133, India",Baramati,Automobile Manufacturing,Manufacturer,18.1837775,74.6061771,,https://kalyanitransmissiontechnology.com/,4.3,34
Kamal Bajaj,"5H8X+P2Q, Bhigwan Rd, near MSEB Guest House, Tal, Baramati, Maharashtra 413102, India",Baramati,Automobile Manufacturing,Manufacturer,18.1685859,74.5956642,096730 05507,https://www.bajajauto.com/,3.8,402
Kamthe Automotive,"Motibaug, Gat no.463, Indapur Rd, Baramati, Maharashtra 413102, India",Baramati,Automobile Manufacturing,Manufacturer,18.1450547,74.5943468,080 4603 4458,https://www.kamtheautomotive.in/,,
Kate Motors Work Shop,"5JM3+X25, Maharashtra Industrial Development Corporation Area, Baramati, Maharashtra 413133, India",Baramati,Automobile Manufacturing,Manufacturer,18.1848726,74.602614,,,5,239
Kavita Plastic,"G-95, Baramati Midc, Dist, Pune, Baramati, Maharashtra 413133, India",Baramati,Plastic Manufacturing,Manufacturer,18.1794381,74.6051245,095942 60366,,5,1
Kavya's Cloud Kitchen,"Baramati Bhigwan Road, Kanchannagar, Shiva Nagar, Baramati, Maharashtra 413102, India",Baramati,Food Processing,Manufacturer,18.1633446,74.5943216,091300 10107,http://www.kavyascloudkitchen.com/,4.7,21
Khade Collection,"Shop No 2, Khade Collection, Bayaji Nagar, Khadenagar, Baramati, Maharashtra 413133, India",Baramati,General Manufacturing,Manufacturer,18.2053625,74.6112399,083809 77269,,5,1
"Kia Car Showroom - Dhone Kia, Khandobanagar","Ground Floor, Suryanagari, Shivdatta Apartment, Khandobanagar, Baramati, Maharashtra 413102, India",Baramati,Automobile Manufacturing,Manufacturer,18.1505451,74.5766881,091672 44675,https://kiaindia-dealers.com/kia-car-showroom-dhone-kia-khandobanagar-dhone-kia-car-dealer-khandobanagar-baramati-334919/Home?utm_source=locator&utm_medium=googleplaces,4.9,90
Kikale Associates,"5H4P+C5Q, Ashok Nagar Colony, Baramati, Maharashtra 413102, India",Baramati,General Manufacturing,Manufacturer,18.1560821,74.5854823,,,4.4,23
KINPACK SOLUTIONS PVT. LTD.,"F32-14, near Arvee cold storage, Maharashtra Industrial Development Corporation Area, Baramati, Katphal, Maharashtra 413133, India",Baramati,Plastic Manufacturing,Manufacturer,18.2231832,74.6023163,092848 06492,,5,1
km software,"Baramati Bhigwan Road, Vidya Nagari, Baramati, Maharashtra 413102, India",Baramati,IT Services,Manufacturer,18.182288,74.6120508,,,1,1
Krisha Electrical And Mechanical Works,"Gate No61 Near Kubharkar, Waghmare Rd, Baramati, Maharashtra 413133, India",Baramati,Mechanical Engineering,Manufacturer,18.1971194,74.6168384,095100 43350,,,
KUTUKAM SOFTWARE Pvt. Ltd.,"Sidhivinayak appartment, water tank, pati, near Rui Road, Maharashtra Industrial Development Corporation Area, Vidya Nagari, Rui, Baramati, Maharashtra 413133, India",Baramati,IT Services,Manufacturer,18.1822988,74.6120628,,http://www.kutukam.com/,5,3
Lagad Cement Pipe Works,"Jalochi Rd, Devkate Estate, Baramati, Maharashtra 413102, India",Baramati,Mechanical Engineering,Manufacturer,18.1655231,74.5946148,098221 98929,http://www.lagadcementpipes.com/,4.1,32
Laxmi Enterprises Baramti,"5JH4+HH9, Baramati Midc, Maharashtra Industrial Development Corporation Area, Surynagari, Baramati, Maharashtra 413133, India",Baramati,Electronics Manufacturing,Manufacturer,18.1788934,74.6064629,083082 08952,,5,1
Laxmi Solar,"5JF5+P2H, Baramati, Maharashtra 413133, India",Baramati,Renewable Energy,Manufacturer,18.1743049,74.6076195,,,,
Lenovo Exclusive Store - Hindustan System,"Shop No. 27 Ground Floor, Subhadra Mall, Baramati Midc, Maharashtra Industrial Development Corporation Area, Baramati, Maharashtra 413133, India",Baramati,Electronics Manufacturing,Manufacturer,18.1783459,74.6066654,080 4889 2246,https://store.lenovo.com/in/en/marketplace/seller/profile/shop/573,4.9,625
Lord Balaji Scale Company,"Market Yard, road, opp. Raja Apartment, Shri Ram Nagar, Desai Estate, Baramati, Maharashtra 413102, India",Baramati,Electronics Manufacturing,Manufacturer,18.1506451,74.5826234,099229 61108,,3.6,7
M G Electrical,"Shop No 1, Baramati - Nira Rd, Kasba, Baramati, Maharashtra 413102, India",Baramati,General Manufacturing,Manufacturer,18.1435706,74.5742482,085528 26000,,,
M K Autobody - Vehicle body manufacturing,"Katphal Rd, Maharashtra Industrial Development Corporation Area, Katphal, Maharashtra 413133, India",Baramati,Automobile Manufacturing,Manufacturer,18.2236936,74.6026041,098226 54015,,5,2
M/S AMIT HIGH VOLTAGE ENGINEERS & SERVICES,"Dorliwadi, Nale Nagar, Baramati, Maharashtra 413102, India",Baramati,Electronics Manufacturing,Manufacturer,18.0973316,74.6104904,097647 87575,https://sites.google.com/view/www-amithighvoltage-com/home,4.6,11
M/S NALE INFRASTRUCTURE CONSTRUCTION & DEVELOPARS,"Maharashtra Industrial Development Corporation Area, Tambenagar, Baramati, Maharashtra 413133, India",Baramati,General Manufacturing,Manufacturer,18.1780985,74.6030758,097647 87575,https://sites.google.com/view/naleinfrastructure/home,5,2
M/s National Industrial Inspection & Training,"Plot No. PAP, 3/28, behind BSNL Office, Maharashtra Industrial Development Corporation Area, Baramati, Maharashtra 413133, India",Baramati,Mechanical Engineering,Manufacturer,18.1828451,74.6042322,078751 54431,http://www.niitndt.com/,4.9,34
M/s. A. V. A. Electrical,"Baramati Midc, Maharashtra Industrial Development Corporation Area, Baramati, Maharashtra 413133, India",Baramati,General Manufacturing,Manufacturer,18.1775275,74.6059353,,,4.9,32
Magnesia Chemicals LLP,"26WF+64R near Morya Hotel Shindemal, Parhar, Road, Lonand, Maharashtra 415521, India",Baramati,Chemical Processing,Manufacturer,18.0455785,74.2227415,075584 28995,https://magnesiachemicals.com/,4.4,15
Mahalaxmi Electronics,"Baramati Bhigwan Road, near Yes bank, opposite Honda showroom, Sahyog Society, Baramati, Maharashtra 413102, India",Baramati,Electronics Manufacturing,Manufacturer,18.1625311,74.5889862,087889 82842,,4.7,16
Mahalaxmi Enterprises,"Indapur Rd, near Bhoite Hospital, near S T Bus Stand, Samarth Nagar, Baramati, Maharashtra 413102, India",Baramati,Renewable Energy,Manufacturer,18.1466187,74.5767576,099238 46161,,5,1
Mahalaxmi Fabrication & Engineering Works,"4HVW+W3Q Mahalaxmi Fabrication & Engineering Works, Indapur Rd, Baramati, Maharashtra 413102, India",Baramati,General Manufacturing,Manufacturer,18.1448303,74.5952328,,,,
Mahalaxmi Steel Traders,"Mahalaxmi Steel Traders, Bus Stand, Solapur - Pune Hwy, near Bhigwan, Bhigwan, Maharashtra 413130, India",Baramati,General Manufacturing,Manufacturer,18.3009449,74.7522403,,,3,2
Mahalaxmi Textile,"5JM6+MM8, Maharashtra Industrial Development Corporation Area, Baramati, Maharashtra 413133, India",Baramati,General Manufacturing,Manufacturer,18.1841556,74.6116901,,,3.8,4
Maharashtra Chemicals and Fertilisers,"4GP3+F2M, Nageshwarnagar, ,Tal - Baramati, Dist -, Malegaon Budruk, Maharashtra 413115, India",Baramati,Chemical Processing,Manufacturer,18.1362118,74.5025711,084013 23805,,4,11
Maharashtra electricals and cctv house,"Shop number 5 , sushila complex , gunawadi, chowk, Baramati - Dahigaon Rd, Pune, Maharashtra 413102, India",Baramati,General Manufacturing,Manufacturer,18.1454146,74.5728796,080076 64142,,5,7
MAHARASHTRA POLYMERS,"Plot no. B-11/12, Baramati Co Operative Industrial Estate Opposite Urja Bhavan, Bhigwan Rd, Baramati, Maharashtra 413102, India",Baramati,Plastic Manufacturing,Manufacturer,18.1653971,74.5971885,098220 06081,https://maharashtrapolymers.com/,5,2
Maharashtra State Warehousing Corporation (MSWC GODOWN),"Shop No 01, Dynamic Road, Maharashtra Industrial Development Corporation Area, Baramati, Maharashtra 413133, India",Baramati,Logistics & Warehousing,Manufacturer,18.1925557,74.6132968,,https://mswarehousing.com/,5,1
Mahindra Bharane Motors - SUV & Commercial Vehicle Showroom,"MIDC, Bhigwan Rd, near HP Petrol Pump, Baramati, Maharashtra 413133, India",Baramati,Automobile Manufacturing,Manufacturer,18.166363,74.596561,096192 48382,https://dealers-auto.mahindra.com/mahindra-bharane-motors-suv-and-commercial-showroom-bhn01b011121-baramati,4.5,517
"Mal Dhakka,baramati railway station","5H4H+5XP, Baramati, Maharashtra 413102, India",Baramati,Logistics & Warehousing,Manufacturer,18.1554682,74.5799599,,,5,1
Malhar Enterprises,"Gat No.-16, Tal, opposite to Airport, near Kale Cold Storage & Warehouse, At Post, Gojubavi, Baramati, Maharashtra 413133, India",Baramati,Logistics & Warehousing,Manufacturer,18.2226017,74.5904276,070303 72525,,5,1
Malhar Hydrotech - GRUNDFOS PUMP Authorize Dealer,"Shop No 6, Sunshine Plaza, Baramati Bhigwan Road, Anand Nagar Colony, Ashok Nagar Colony, Baramati, Maharashtra 413102, India",Baramati,Renewable Energy,Manufacturer,18.1579204,74.583877,073229 27171,https://mydigitalcard.org/Malhar-Hydrotech-,4.9,54
Mallick Electrical Company,"E 40 MIDC industrial area baramati, Baramati, Maharashtra 413133, India",Baramati,General Manufacturing,Manufacturer,18.201594,74.6127617,080072 07222,,4.8,17
Mangalmurti enterprises itc,"4HXM+55W, Shivdatta Apartment, Desai Estate, Baramati, Maharashtra 413102, India",Baramati,Logistics & Warehousing,Manufacturer,18.14831,74.583368,,,,
Manoj workshop,"6JG2+QVR, Katphal Rd, Maharashtra Industrial Development Corporation Area, Katphal, Baramati, Maharashtra 413133, India",Baramati,Logistics & Warehousing,Manufacturer,18.2269808,74.6021435,,,,
"Maruti Suzuki ARENA (Mahalaxmi Automotives, Baramati, Phaltan Road)","S.No. 47/48, 50/1B, Phaltan - Baramati Rd, Kasba, Baramati, Maharashtra 413102, India",Baramati,Automobile Manufacturing,Manufacturer,18.1394897,74.5668431,080 6221 7016,http://arenaofbaramati.com/?utm_source=gmb&utm_medium=google,4.7,4899
Massey Ferguson - Shree Datt Motors,"Baramati - Nira Rd, Baramati, Maharashtra 413102, India",Baramati,Automobile Manufacturing,Manufacturer,18.1408152,74.558505,080078 44092,https://dealers.masseyfergusonindia.com/tractors-in-laxmi-narayan-nagar-baramati-maharashtra-413102/home,4.8,9
Matoshri Cloth Center,"Kalayaninagar, Tandulwadi, Baramati, Maharashtra 413133, India",Baramati,General Manufacturing,Manufacturer,18.183846,74.5906235,,,5,2
Mauli Milk And Dairy,"shop no A, Gajara pacific, G-4, Baramati Midc, Maharashtra Industrial Development Corporation Area, Tambenagar, Baramati, Maharashtra 413133, India",Baramati,Food Processing,Manufacturer,18.1778114,74.6051429,083299 91728,,5,3
Mauli Textile,"Baramati bhigvan road, MIDC, Baramati, Maharashtra 413133, India",Baramati,General Manufacturing,Manufacturer,18.1982343,74.6231249,099704 52600,https://maulitextile.in/,5,9
Mauli welding work,"midc, Maharashtra Industrial Development Corporation Area, Baramati, Maharashtra 413133, India",Baramati,General Manufacturing,Manufacturer,18.2060893,74.6062586,096375 61472,,4,4
"Mayur Enterprises , Computers, Printers, PF, Pan Card, Digital E Sign","Shop No. 25, Vidya Corner Complex, Maharashtra Industrial Development Corporation Area, Baramati, Maharashtra 413133, India",Baramati,Electronics Manufacturing,Manufacturer,18.1781665,74.6083091,084120 94242,,4.9,17
MEDICRICK PHARMA,"Shop No.403, Aarya Paradies, Tandulwadi Rd, near k-mart, Sapana Nagar, Surynagari, Baramati, Maharashtra 413102, India",Baramati,Pharmaceutical Manufacturing,Manufacturer,18.1656496,74.5814088,099704 51145,http://medicrickpharma.com/,5,23
MedPlus Franchise - Samarth Medicals,"Shop Number 2, Vidya Pratishthan Building, Cinema Road, Indapuram Chowk, Baramati, Maharashtra 413102, India",Baramati,Pharmaceutical Manufacturing,Manufacturer,18.1469732,74.574366,093591 06647,https://www.medplusmart.com/storelocator#pharmacy,5,14
MedPlus Newase Road Baramati,"Shop No 1 Sombaji Heaits Kale Nagar Newase Road Main ICICI Bank, Baramati, Maharashtra 413102, India",Baramati,Pharmaceutical Manufacturing,Manufacturer,18.1508828,74.5734385,076709 09593,https://www.medplusmart.com/,3.3,12
MEDXIN®,"Maharashtra Industrial Development Corporation Area, Baramati, Maharashtra 413133, India",Baramati,Pharmaceutical Manufacturing,Manufacturer,18.2030034,74.6108168,,http://www.medxin.in/,5,1
Mhetre Electricals and Cables,"kotak mahidara bank Tal - Baramati Dist, Baramati, Maharashtra 413102, India",Baramati,General Manufacturing,Manufacturer,18.1571007,74.5841281,096737 72626,,4.5,23
Michelin - V.Rangildas & Co.,"Bhigwan Rd, MSEB colony, Baramati, Maharashtra 413102, India",Baramati,Automobile Manufacturing,Manufacturer,18.1685019,74.5954645,085888 97655,https://www.michelin.in/auto/dealers/v-rangildas-co5?utm_source=Google&utm_medium=organic&utm_campaign=Yext_GMB&utm_content=LDS&utm_term=Yext_GMB,4.2,25
Micro Magic Technologies,"G-80, G-80, Maharashtra Industrial Development Corporation Area, Baramati, Gojubavi, Maharashtra 413133, India",Baramati,Food Processing,Manufacturer,18.231591,74.6000272,080 3594 8769,,4.1,20
Microcare Computer Systems,"Near Market Yard, Indapur Road, Baramati Tal, Dist, Baramati, Maharashtra 413102, India",Baramati,IT Services,Manufacturer,18.1466581,74.5830704,098608 35003,https://microcarecomputers.in/,5,1
"Milind Trading Company, Baramati Bhigwan Road","Wagholikar House, Baramati Bhigwan Road, opposite District Court, Pushpak Apartment, Baramati, Maharashtra 413102, India",Baramati,Electronics Manufacturing,Manufacturer,18.1586687,74.5858735,086986 82222,,4.9,3200
Milky feast foods,"103, Katphal Rd, Maharashtra Industrial Development Corporation Area, Katphal, Maharashtra 413133, India",Baramati,Food Processing,Manufacturer,18.2225053,74.6107873,077094 07907,,5,2
"Minakshi Electricals, Baramati","Shop No. 09, Jalochi Rd, Baramati Midc, Surynagari, Baramati, Maharashtra 413133, India",Baramati,Electronics Manufacturing,Manufacturer,18.1751708,74.6081143,093701 61208,,4.2,6
Mind Industrial Solutions Pvt Ltd,"BARAMATI INDUSTRIES COMPOUND, D-16, DIST, Maharashtra Industrial Development Corporation Area, Baramati, Maharashtra 413133, India",Baramati,General Manufacturing,Manufacturer,18.1873343,74.5996588,080878 61236,http://mindindus.in/,5,3
MODGI CREATIVE,"5JW8+W4M, Maharashtra Industrial Development Corporation Area, Baramati, Maharashtra 413133, India",Baramati,Logistics & Warehousing,Manufacturer,18.1973265,74.6152832,,,,
Moonup Technology Private Limted,"Plot No. E-106,Airport Road,Near Bharat Forge,Midc Pune,413-102, Baramati, Maharashtra 413133, India",Baramati,IT Services,Manufacturer,18.2040379,74.609648,,,5,4
Morya Engineering,"Rui pati Near HP petrol pump Bhigwan Road, DISTT, Baramati Midc, Maharashtra Industrial Development Corporation Area, Baramati, Maharashtra 413133, India",Baramati,Mechanical Engineering,Manufacturer,18.1843663,74.6122452,,,,
Morya Pharma,"4HRG+V8F, Samarth Nagar, Baramati, Maharashtra 413102, India",Baramati,Pharmaceutical Manufacturing,Manufacturer,18.1423459,74.57567,,,,
Mota Garments,"D4, off RTO Office Baramati, Maharashtra Industrial Development Corporation Area, Baramati, Maharashtra 413133, India",Baramati,General Manufacturing,Manufacturer,18.186764,74.60052,098224 21212,http://www.motauniforms.com/,4,4
Motor Artz- Best Car Workshop In Baramati,"Khandobanagar, Baramati, Maharashtra 413102, India",Baramati,Automobile Manufacturing,Manufacturer,18.1562636,74.5633954,093738 30967,,5,5
MSETCL Warehouse,"Maharashtra Industrial Development Corporation Area, Katphal, Maharashtra 413133, India",Baramati,Logistics & Warehousing,Manufacturer,18.2254802,74.5985433,1800 200 3435,,3.8,5
Muktai Organic Fertilizers Pvt. Ltd,"Plot No. G 134, Maharashtra Industrial Development Corporation Area, Baramati, Gojubavi, Maharashtra 413133, India",Baramati,Chemical Processing,Manufacturer,18.2330428,74.6010992,098900 09005,http://muktaiorganic.com/,3.8,6
Muktai textile,"1, Indapur Rd, Baramati, Maharashtra 413102, India",Baramati,General Manufacturing,Manufacturer,18.1462413,74.5912198,,,4,9
Murumkar Transport,"MOTIBAUG, Indapur Rd, Baramati, Maharashtra 413102, India",Baramati,Logistics & Warehousing,Manufacturer,18.1459106,74.5932124,02112 227 177,,4.2,78
Natural air products,"Office/Godawoun-ranjangaon, Office- Baramati Midc, Godawoun, Plot no C-21, 3, Maharashtra Industrial Development Corporation Area, Pune, Maharashtra 413133, India",Baramati,IT Services,Manufacturer,18.182521,74.604301,,,5,2
Navkar Apotek LLP,"5H2P+XJ5, Desai Estate, Baramati, Maharashtra 413102, India",Baramati,Pharmaceutical Manufacturing,Manufacturer,18.1523889,74.5866625,089561 72570,,4.8,6
Navnath Electrical & Hardware,"Baramati, Maharashtra 413133, India",Baramati,General Manufacturing,Manufacturer,18.1755108,74.6053933,094217 90064,,4,29
New Alif Mobile Accessories,"5JF2+PXV, Saily Nagar, Baramati, Maharashtra 413133, India",Baramati,Electronics Manufacturing,Manufacturer,18.1743996,74.602387,,,4.9,24
"NEXA (Mahalaxmi Automotives, Baramati, Karbhari Circle)","Survey No. 47/50/48/1/B, Plot No.1, Phaltan - Baramati Rd, Kasba, Baramati, Maharashtra 413102, India",Baramati,Automobile Manufacturing,Manufacturer,18.1449381,74.5674873,080 6251 2167,http://nexaofkarbharicircle.com/?utm_source=gmb&utm_medium=google,4.9,3654
Nexus Metal Industries,"PLOT No D-38, Maharashtra Industrial Development Corporation Area, Baramati, 413133, India",Baramati,Mechanical Engineering,Manufacturer,18.1888001,74.6011591,,,5,1
NIKAM DAIRY,"Mota Nagar, Baramati, Maharashtra 413133, India",Baramati,Food Processing,Manufacturer,18.1755006,74.6064434,096652 72203,,5,2
Nira Valley Grape Wines Pvt. Ltd.,"6J83+RGV, Maharashtra Industrial Development Corporation Area, Baramati, Katphal, Maharashtra 413133, India",Baramati,Food Processing,Manufacturer,18.2171043,74.6038118,090110 37992,http://niravalleywines.com/,5,4
Nxg Robotics (Electronics Components and Engg Projects),"B1A, S 4 Q Building, Dhruv Darshan,S.1785, Sector No. 26, Nigdi, Pune, Maharashtra 411044, India",Baramati,Electronics Manufacturing,Manufacturer,18.6527501,73.7610547,098813 46587,https://nxgrobotics.in/,4.9,248
Om Chemical Industries,"Malegaon bk, Baramati, Maharashtra 413115, India",Baramati,Chemical Processing,Manufacturer,18.1313158,74.4976859,,,3,1
OM KALYANI IT SOLUTION PVT LTD (OKISPL),"Shop no T-23, Vidya Corner Super Market, Plot No -15, Pencil Chowk, Baramati, Maharashtra 413133, India",Baramati,Electronics Manufacturing,Manufacturer,18.1783955,74.6083622,02112 299 395,http://www.okispl.com/,4.6,14
Om Sai Fabricators,"S No, 54, Near Sanmitra Bank, Bhagyoday Nagar, Shreehans Nagar, Kondhwa, Pune, Maharashtra 411048, India",Baramati,General Manufacturing,Manufacturer,18.472577,73.8869599,097673 09446,,5,127
OM SAIRAM COLLECTION,"new bhaji pala market, Jalochi Jalochi nearby mhakaleshavar temple pimpli midc road, Baile, bazar road, near Baramati, Maharashtra 413102, India",Baramati,General Manufacturing,Manufacturer,18.1555575,74.6070196,090962 90160,,5,29
Omkar Electrical,"5H8V+456, Road, near Shri Ram Nagar, Baramati Midc, Shri Ram Nagar, Shiva Nagar, Baramati, Maharashtra 413102, India",Baramati,General Manufacturing,Manufacturer,18.1652909,74.5928896,,,,
Omkar Engineers,"6J26+M5C, Maharashtra Industrial Development Corporation Area, Baramati, Maharashtra 413133, India",Baramati,Mechanical Engineering,Manufacturer,18.2016382,74.6103802,094235 79856,,4.2,6
Omkar Enterprises,"12/11, Maharashtra Industrial Development Corporation Area, Baramati, Maharashtra 413133, India",Baramati,IT Services,Manufacturer,18.1842223,74.6050029,,,,
OMKAR PACKAGING INDUSTRY,"Plot no.-C.-30, Bhigwan Road, behind Fire Bridge, Maharashtra Industrial Development Corporation Area, Baramati, Maharashtra 413133, India",Baramati,General Manufacturing,Manufacturer,18.1960433,74.6063748,098222 17099,,,
Ontologie AI Pvt Ltd,"Ontologie AI Pvt ltd, Sairaj COmplex, Baramati Bhigwan Road, MSEB colony, Baramati, Maharashtra 413102, India",Baramati,IT Services,Manufacturer,18.1672207,74.5922313,079726 67623,https://www.ontologieai.com/,,
OPTLOG Supply chain private limited,"6HPX+R9G, Maharashtra Industrial Development Corporation Area, Baramati, Gojubavi, Maharashtra 413133, India",Baramati,Logistics & Warehousing,Manufacturer,18.2370631,74.5984581,090870 00039,http://optlogsupplychain.com/,4.8,16
Ozarde Estate baramati,"5H5F+5R7, Avaduth Nagar, Baramati, Maharashtra 413102, India",Baramati,Electronics Manufacturing,Manufacturer,18.1579103,74.5745461,,,4.8,4
"P K COLD STORAGE , MIDC , BARAMATI - 413133","Plot no. D 14 kalyani corner, :, near to sana engineering, Maharashtra Industrial Development Corporation Area, dist, Baramati, Maharashtra 413133, India",Baramati,Logistics & Warehousing,Manufacturer,18.1865866,74.5990657,070207 07241,,4.3,4
Pacific Agro Technology,"E-Block, Plot No.20, Maharashtra Industrial Development Corporation Area, Baramati, Maharashtra 413133, India",Baramati,Automobile Manufacturing,Manufacturer,18.1980233,74.6171103,077740 21919,http://www.pacificagrotechnology.in/,4.4,25
Padma Engineering Works,"Maharashtra Industrial Development Corporation Area, Baramati, Maharashtra 413133, India",Baramati,Mechanical Engineering,Manufacturer,18.1954552,74.6079607,02112 243 853,,4.8,4
PADMAVATI AGENCY,"Prabhakarrao, Anna)Galinde complex, Ring Road, Shivaji Chowk, Baramati, Maharashtra 413133, India",Baramati,General Manufacturing,Manufacturer,18.1791791,74.6077971,,,3.7,3
Papermint outlet,"5JV7+53G, Maharashtra Industrial Development Corporation Area, Baramati, Maharashtra 413133, India",Baramati,General Manufacturing,Manufacturer,18.1931347,74.6140674,,,3.3,4
Papillon Industrial Electricals,"11, Sriram udyog bhavan, Baramati Bhigwan Road, near yamah Bandhan bank, Baramati, Maharashtra 413102, India",Baramati,General Manufacturing,Manufacturer,18.163928,74.5904564,095030 39006,,5,4
Parth Enterprises - Metal Fabrication Work,"S no 51/1flat no 09, chaturbhuj app, khadi machin road, Nanded Fata, Pandurang Industrial Area, Nanded, Pune, Maharashtra 411068, India",Baramati,General Manufacturing,Manufacturer,18.4602887,73.8114122,083292 17639,,4.8,24
PATIL AEROSPACE ENGINEERING PVT LTD - Fabricated Valve Manufacturers India,"A-60, Maharashtra Industrial Development Corporation Area, Baramati, Maharashtra 413133, India",Baramati,General Manufacturing,Manufacturer,18.1901488,74.6034869,,https://www.valpat.in/,5,1
Pawan Kushans,"5JJ4+567, Road, near Vaibhav Wines, Baramati Midc, Baramati, Maharashtra 413133, India",Baramati,General Manufacturing,Manufacturer,18.1803881,74.605581,,,,
Pawar Agro Traders,"MH SH 221, Baramati, Maharashtra 413102, India",Baramati,Automobile Manufacturing,Manufacturer,18.146034,74.591477,099223 93423,,5,4
Pawar Poultry Farm & Poultry Suppliers,"Dhavale mala,Pandare,Barmati, dist, Baramati, Maharashtra 413133, India",Baramati,Food Processing,Manufacturer,18.1761742,74.6019498,090119 03902,,5,2
Pawar wadewale Bmt ????? ??????,"Desai Estate, Baramati, Maharashtra 413102, India",Baramati,Food Processing,Manufacturer,18.1467232,74.5835149,,,,
Pcj industries pvt ltd,"87, Maharashtra Industrial Development Corporation Area, Baramati, Maharashtra 413133, India",Baramati,IT Services,Manufacturer,18.2031899,74.6111787,,,,
Pentacle Industries Pvt Ltd,"6J57+75C, Maharashtra Industrial Development Corporation Area, Baramati, Maharashtra 413133, India",Baramati,Mechanical Engineering,Manufacturer,18.2082111,74.6129027,,,,
Peppermint Kids - Baramati Office,"3,4,5, Baramati Hi-Tech Textile Park Ltd, Plot E - 1/2 (2, Maharashtra Industrial Development Corporation Area, Baramati, Maharashtra 413133, India",Baramati,General Manufacturing,Manufacturer,18.19614,74.6160083,,https://peppermint.in/,,
Peter England Baramati,"Subhadra mall, Bhigwan Rd, Maharashtra Industrial Development Corporation Area, chowk, Baramati, Maharashtra 413133, India",Baramati,General Manufacturing,Manufacturer,18.1777581,74.60614,097662 33611,https://www.peterengland.com/,4,95
Pharma Health Medical,"Pan Galli, near Ganesh Market, Samarth Nagar, Baramati, Maharashtra 413102, India",Baramati,Pharmaceutical Manufacturing,Manufacturer,18.1445371,74.5734083,083081 47596,,5,3
PHARMA WORLD,"DVK GROUP PLOT NO.A-5/1,GROUND FLOOR, Maharashtra Industrial Development Corporation Area, Tandulwadi, Baramati, Maharashtra 413133, India",Baramati,Pharmaceutical Manufacturing,Manufacturer,18.1815591,74.6048027,095610 95707,,4.3,15
pharmaceutical store,"Market Yard Rd, Shri Ram Nagar, Desai Estate, Baramati, Maharashtra 413102, India",Baramati,Pharmaceutical Manufacturing,Manufacturer,18.1510392,74.5824655,098504 02591,,5,1
Phoenix Solar Systems Pvt. Ltd.,"""Phoenix"", 51, Deshmukh Colony, SadarBazar,, Satara, Maharashtra 415001, India",Baramati,Renewable Energy,Manufacturer,17.6950342,74.0092822,083088 21916,http://www.phoenixsolar.co.in/,3.6,21
Piaggio Vehicles Private Limited,"E-2, MIDC Area, Maharashtra Industrial Development Corporation Area, Baramati, Maharashtra 413133, India",Baramati,Mechanical Engineering,Manufacturer,18.2111625,74.6055636,020 6749 2800,https://piaggio-cv.co.in/,4.3,1367
Piaggio vehicles spare division,"A1, phase, 2, Maharashtra Industrial Development Corporation Area, Baramati, Gojubavi, Maharashtra 413133, India",Baramati,Logistics & Warehousing,Manufacturer,18.1791791,74.6077971,,,5,2
Pioneer Calicos Exclusively White and Black (Factory Outlet),"Maharashtra State Highway 68, Baramati Hi-Tech Textile Park Ltd, Shop No 4 and 5, CFS Centre, Bhigwan Road, Maharashtra Industrial Development Corporation Area, Baramati, Maharashtra 413133, India",Baramati,General Manufacturing,Manufacturer,18.1931271,74.6139833,098230 98345,,4.4,16
Pk corporate fibric manufacturing unit,"Jalochi Rd, Baramati, Maharashtra 413133, India",Baramati,General Manufacturing,Manufacturer,18.1749717,74.6083109,084464 43112,,,
PK ENGINEERING AND WIRE PRODUCTS,"Maharashtra Industrial Development Corporation Area, Baramati, Maharashtra 413133, India",Baramati,Mechanical Engineering,Manufacturer,18.1913152,74.6135121,098347 18121,,4.6,8
pooja enterprises,"Cinema Road, Ahilyadevi Chowk, Baramati, Maharashtra 413102, India",Baramati,Plastic Manufacturing,Manufacturer,18.1469665,74.5741066,090962 11926,,4.5,37
POSITIVE AUTOMATION AND POWER OLUTIONS,"Shop 18/19, near Mota Garment, Maharashtra Industrial Development Corporation Area, Baramati, Maharashtra 413133, India",Baramati,General Manufacturing,Manufacturer,18.1867659,74.6005152,091750 09101,,,
Pradeep Medical Distributors,"Siddhivinayak tower, Baramati Bhigwan Road, below punjab national bank, Pushpak Apartment, Baramati, Maharashtra 413102, India",Baramati,Pharmaceutical Manufacturing,Manufacturer,18.1579884,74.5846994,080079 90543,,,
Pramod Engineers,"Unnamed Road, Bayaji Nagar, Maharashtra Industrial Development Corporation Area, Baramati, Katphal, Maharashtra 413133, India",Baramati,Mechanical Engineering,Manufacturer,18.2097659,74.6118618,099753 14242,,5,4
Prashtech Engineers Private Limited,"S No-8/1, NDA Rd, Deshmukh Nagar, Shivane, Pune, Maharashtra 411023, India",Baramati,Mechanical Engineering,Manufacturer,18.4690908,73.7962544,098226 64406,https://prashtech.com/,4.2,10
Pratap Tea Company Pvt. Ltd.,"6/148, Opp Manmat Karylay, Burud Lane, Station Rd, Baramati, Maharashtra 413102, India",Baramati,Food Processing,Manufacturer,18.149792,74.572502,094220 33939,,4.7,3
PRECISE CAD SOLUTIONS AND SERVICES,"FLAT NO-13 C/O-DEOKATE PRAKASH EAKNATH VASANT, KASABA, Baramati, Maharashtra 413102, India",Baramati,Mechanical Engineering,Manufacturer,18.1457133,74.5641339,097639 39600,http://www.precisecadsolutions.yolasite.com/,5,107
Precision Engineering Industries,"E-55 MIDC, Maharashtra Industrial Development Corporation Area, Baramati, Maharashtra 413133, India",Baramati,General Manufacturing,Manufacturer,18.2020862,74.6106894,098225 21077,,3,2
Precitech Engineers/ Universal Industries,"Baramati Midc, Maharashtra Industrial Development Corporation Area, Baramati, Maharashtra 413133, India",Baramati,Mechanical Engineering,Manufacturer,18.179438,74.6051257,,,5,1
Primo Solar Spirit LLP,"Corporate Office :- ""PRIME HOUSE, Swami Vivekanand Nagar, near Famous Chowk, Maharshi Valmiki Nagar, New Sangavi, Pune, Pimpri-Chinchwad, Maharashtra 411061, India",Baramati,Renewable Energy,Manufacturer,18.5790381,73.8096202,081779 24373,http://www.primosolarspirit.com/,4.9,148
Prix Corporation,"Sameer Heights , City Inns Chowk, Baramati, Maharashtra 413133, India",Baramati,Electronics Manufacturing,Manufacturer,18.1753911,74.6052091,083291 32208,http://prixcorp.in/,4.9,49
R.S Pharmaceuticals & Distributors,"Shop no. 3, Jagtap Tower, 4 & 5, Motibag Gunwadi, Baramati, Maharashtra 413102, India",Baramati,Pharmaceutical Manufacturing,Manufacturer,18.1437641,74.5975573,090117 95112,,5,1
Rack N Space Storage Solution Pvt Ltd.,"C/17, Maharashtra Industrial Development Corporation Area, Midc, Baramati, Maharashtra 413133, India",Baramati,IT Services,Manufacturer,18.193998,74.6065338,,,4.8,6
Radissons Trading Company,"5JM5+6C5, Baramati, Maharashtra 413133, India",Baramati,Logistics & Warehousing,Manufacturer,18.1829655,74.6085792,,,,
Raintree Computing Pvt. Ltd.,"Mahalaxmi Nagar, Plot no.6, 3rd Floor, Bharat Vision Building, Bhigwan Rd, Baramati, Maharashtra 413102, India",Baramati,IT Services,Manufacturer,18.1637261,74.5894399,077220 15989,http://www.raintreecomputing.com/,4.6,32
RAITOR HEALTHCARE PVT LTD,"Shop No.-S/3,AbhinavSociety, Harikrupanagar, Baramati, Maharashtra 413133, India",Baramati,Pharmaceutical Manufacturing,Manufacturer,18.1791791,74.6077971,095292 07002,http://raitorhealthcare.com/,,
Raj Multi Tech Rubber Industry,"756C+JPC, Jejuri MIDC, Jejuri, Maharashtra 412303, India",Baramati,General Manufacturing,Manufacturer,18.2606366,74.1713133,,,5,1
Raj Packaging,"W -7 M I D C, Baramati, Maharashtra 413133, India",Baramati,Plastic Manufacturing,Manufacturer,18.1828647,74.6051839,098230 72152,http://greenbioblend.com/,3.9,8
RAJMUDRA ENTERPRISES AND ELECTRICAL,"Shop 2, Baramati, Maharashtra 413102, India",Baramati,General Manufacturing,Manufacturer,18.1539473,74.5710865,070576 96000,,,
Rajmudra Power Solution LLP,"Shree Business Point, Sambhaji Nagar, Baramati Bhigwan Road, Maharashtra Industrial Development Corporation Area, MSEB colony, Baramati, Maharashtra 413102, India",Baramati,General Manufacturing,Manufacturer,18.1685211,74.5918905,077560 08283,http://www.rajmudrapowersolution.com/,4.5,6
Rama Agrotech Head Office,"Servey No.265, rui-sawal road, Plot No-100, MIDC, opposite Sitaram Lawns, MIDC, Baramati, Maharashtra 413133, India",Baramati,Chemical Processing,Manufacturer,18.1855017,74.6345958,095039 50212,https://www.ramaagrotech.in/,4.5,26
RAMSONS WAREHOUSING D-15,"D/15, Baramati Midc, Maharashtra Industrial Development Corporation Area, Midc Area, Baramati, Maharashtra 413133, India",Baramati,Logistics & Warehousing,Manufacturer,18.1869613,74.5993432,,,5,1
Raviraj Agro,"E 201, Maharashtra Industrial Development Corporation Area, Baramati, Maharashtra 413133, India",Baramati,Chemical Processing,Manufacturer,18.2035659,74.6080174,,,1,1
RB PRINTS / RUBBER STAMP,"Infront of Babuji Naik Wada, Old, New Kacheri Rd, Baramati, Maharashtra 413102, India",Baramati,General Manufacturing,Manufacturer,18.1482301,74.5704144,090287 71135,,4.9,104
Real Dairy Industries Pvt. Ltd.,"Plot No F22, Katphal Road, Near Baramati, Airport Cir, Maharashtra Industrial Development Corporation Area, Katphal, Maharashtra 413133, India",Baramati,Mechanical Engineering,Manufacturer,18.2269611,74.6040161,098232 35043,,4.3,332
Regex Technologies,"Office no.01, Bodhe Building, in front of Mota Nagar, Suryanagri, Maharashtra Industrial Development Corporation Area, Baramati, Maharashtra 413133, India",Baramati,Electronics Manufacturing,Manufacturer,18.1738888,74.6061942,098605 81740,https://www.regextech.com/,4.9,45
Rehan Cloth Centre,"P/55, Maharashtra Industrial Development Corporation Area, Chadharwadi, Baramati, Maharashtra 413133, India",Baramati,General Manufacturing,Manufacturer,18.2020883,74.613762,091682 08272,,,
Reliance Digital,"60, UGF, Subhadra Mall, Plot No P, Bhigwan Road, near Pencil Chowk, Baramati Midc, Maharashtra Industrial Development Corporation Area, Baramati, Maharashtra 413102, India",Baramati,Electronics Manufacturing,Manufacturer,18.177936,74.605953,08071 889 873,https://www.reliancedigitalstores.in/reliance-digital-subhadra-baramati-mh-electronics-retail-and-repair-shop-midc-baramati-231809/Home?utm_source=locator&utm_medium=googleplaces,4.9,12441
Renault Baramati,"S.No, 50/1B, 47/48, Phaltan - Baramati Rd, Baramati, Maharashtra 413102, India",Baramati,Automobile Manufacturing,Manufacturer,18.1383226,74.5639574,084484 88203,https://www.renault.co.in/,4.9,3751
Retails Automation,"shop no 1, Morya Bulding, Rui Rd, Baramati Midc, Vidya Nagari, Baramati, Maharashtra 413133, India",Baramati,Electronics Manufacturing,Manufacturer,18.1824375,74.6159827,096371 09000,http://www.retailsautomation.com/,5,5
Riddhesh Electricals,"Shop No -14, Suryakant Arkeid, City Inn Chowk, Baramati, Maharashtra 413133, India",Baramati,Electronics Manufacturing,Manufacturer,18.17587,74.605011,082756 91382,,5,15
Riddhi refrigeration And Electricals,"5HCR+266, Pragatinagar, Baramati, Maharashtra 413102, India",Baramati,Electronics Manufacturing,Manufacturer,18.1700364,74.5905208,,,5,1
Rishabh Trading Company,"Venkateshwara Complex, 2/3, Baramati Bhigwan Road, near SBI Bank, Ashok Nagar Colony, Baramati, Maharashtra 413102, India",Baramati,General Manufacturing,Manufacturer,18.15605,74.5824453,077983 35757,,3.7,3
RJ CYCLE STUDIO,"TAPKIRE ESTET, Baramati Bhigwan Road, near HOTEL AMAR DEEP, Baramati, Maharashtra 413102, India",Baramati,General Manufacturing,Manufacturer,18.1702688,74.5976621,096234 58890,,4.4,84
"RK SALES CORPORATION-COMPUTER ,LAPTOP IN BARAMATI","Sahyog Society, Baramati, Maharashtra 413102, India",Baramati,Electronics Manufacturing,Manufacturer,18.1636779,74.5900906,099607 05007,http://www.rksales.in/,4.4,206
Rohan Industries,"Plot D/20/5, near RTO, Maharashtra Industrial Development Corporation Area, Baramati, Maharashtra 413133, India",Baramati,Logistics & Warehousing,Manufacturer,18.1894943,74.5997399,,http://www.rohanindustries.com/,5,2
Rohit entrprises,"Kalyani Nagar, Maharashtra Industrial Development Corporation Area, Baramati, Maharashtra 413133, India",Baramati,Logistics & Warehousing,Manufacturer,18.1861615,74.5958729,083691 32477,http://rohitenterprises.in/,,
Rolling Shutter Repairing Services in Pune | Shutter Repair in swargate | Bhosari | Baner | Aundh | Kothrud,"Building 284, Flat. No.1B Stilt. Floor. Royalnaaz, 1A, Somwar Peth, Pune, Maharashtra 411011, India",Baramati,General Manufacturing,Manufacturer,18.5203477,73.8676587,090217 42325,http://www.rollingshutter.in/,5,26
Royalsun enterprises,"Shop no- 1, krushnyog Tounship, Near shri hospital, suryanagri, Baramati Midc, Baramati, Maharashtra 413133, India",Baramati,General Manufacturing,Manufacturer,18.1730611,74.6049437,,,,
RS garment,"Rui, Sawal, Baramati, Maharashtra 413133, India",Baramati,General Manufacturing,Manufacturer,18.1809304,74.6204188,078419 49696,http://www.rsgarments.com/,5,1
Rubber Matters Private Limited,"10 Biz Park, Mhada Colony, Viman Nagar, Pune, Maharashtra 411014, India",Baramati,General Manufacturing,Manufacturer,18.5752426,73.9098526,,http://www.rubbermatters.com/,5,21
Rudra Enterprises,"Rudra Enterprises, Shriram Udyog bhavan, Shriram chouk, Bhagwan Road, near Bandhan Bank, Baramati, Maharashtra 413102, India",Baramati,Electronics Manufacturing,Manufacturer,18.1639753,74.5902636,070660 69009,,4.7,3
Rudra Fabrication Work,"Shop no. 1, near shitala Devi mandir, Deepak Nagar, Hadapsar, Gopalpatti, Pune, Maharashtra 412307, India",Baramati,General Manufacturing,Manufacturer,18.5097494,73.9656389,090492 81923,https://www.instagram.com/rudrafabrication?igsh=MWgyZWl5aHlkamFyaw==,5,13
Rudra Sun Foods (Sunlight Ice cream),"Royal Garden, Baramati Midc, Pune, Baramati, Maharashtra 413133, India",Baramati,IT Services,Manufacturer,18.1861449,74.6049154,087881 74674,https://www.sunlighticecream.com/,,
Rushi Engineering Works,"G-117, Maharashtra Industrial Development Corporation Area, Baramati, Gojubavi, Maharashtra 413133, India",Baramati,Mechanical Engineering,Manufacturer,18.2318326,74.6009264,077410 48855,,5,2
Rutvik Electrical,"RUTVIK ELECTRICAL, Deshmukh chowk, patas ring road, Baramati, Maharashtra 413102, India",Baramati,General Manufacturing,Manufacturer,18.1618236,74.5696438,,https://www.rutvik.in/,5,6
S R Precast,"Baramati Indapur Road, near poddar international school, Bandalwadi, Kanheri, Maharashtra 413102, India",Baramati,General Manufacturing,Manufacturer,18.1584988,74.6303606,099757 86599,,4.9,214
S S Engineers,"E. 213, Baramati Midc, Baramati, Maharashtra 413133, India",Baramati,Mechanical Engineering,Manufacturer,18.179438,74.6051257,097666 66783,,5,3
S.S Electricals & Surveillance,"Shop Number 12, Back Side, Ganesh Mandai, Samarth Nagar, Baramati, Maharashtra 413102, India",Baramati,General Manufacturing,Manufacturer,18.1448676,74.5740457,091729 69974,,5,2
S.S Enterprises,"Shop No. 8 Ganesh Market, Gunawadi Rd, Chauk, Baramati, Maharashtra 413102, India",Baramati,General Manufacturing,Manufacturer,18.1458221,74.5735813,098608 19462,,5,2
"Sachin Electrical and contractor Near Riksha Stop Tandulwadi,Baramati. Pune Maharashtra.","Near Riksha Stop, Tandulwadi, Baramati, Maharashtra 413102, India",Baramati,General Manufacturing,Manufacturer,18.1833031,74.5851017,098908 27306,,,
Sachin Electricals ???? ?????????????,"shop no A-G5, Subhadra moll, Back side, Gajara Pacific, Maharashtra Industrial Development Corporation Area, Tambenagar, Baramati, Maharashtra 413133, India",Baramati,Electronics Manufacturing,Manufacturer,18.1777224,74.6053849,098819 81843,,4.2,10
Sadhguru plastic Industries,"6JF5+7V4, Unnamed Road, Katphal, Maharashtra 413133, India",Baramati,Plastic Manufacturing,Manufacturer,18.2231396,74.6096994,,,5,1
SAFEXPRESS PVT. LTD.,"Chandrajagat Rd, Baramati, Maharashtra 413133, India",Baramati,Logistics & Warehousing,Manufacturer,18.171091,74.608519,1800 11 3113,https://www.safexpress.com/,3.7,3
Sahyadri Agro And Dairy Private Limited,"Vidya Corner, pencil chowk, MIDC, Baramati – 413 133, Baramati, Maharashtra 413133, India",Baramati,Food Processing,Manufacturer,18.178254,74.6083721,02112 244 055,,3.7,45
"Sahyadri car decor - Best car accessories shops in Baramati and car seat cover, car filming, car sound , car speeker","Shop No 11, Prasanna Heights, New, Morgaon Rd, near Akshada Mangal Karyalay Front of satav school, Khandobanagar, Baramati, Maharashtra 413102, India",Baramati,Automobile Manufacturing,Manufacturer,18.1505161,74.5666575,096040 19884,,5,22
Sahyadri Chemical Malegaon bk,"A/p :- Malegaon bk, Jijau Nagar Tal : Baramati, Dist :- Pune, Pin code :- 413115, Baramati, Maharashtra 413115, India",Baramati,Chemical Processing,Manufacturer,18.1423923,74.4979986,096652 62604,,4.8,20
Sahyadri Enterprises,"Infront Of Bharat Forge Material Gate, Plot No - E - 42, Maharashtra Industrial Development Corporation Area, Baramati, Maharashtra 413133, India",Baramati,Automobile Manufacturing,Manufacturer,18.2015193,74.6121827,089562 79804,https://www.sahyadrielectrical.com/,4.1,54
SaiDatta Variety Baramati. Gown/ Nighty/ kurtis top/ bed sheet/ door mat/ galicha/ bag/ towel/ curtain,"Shriramnagar, Next Ram Temple, Dr. Vaishali Bhagat Clinic, Baramati, Maharashtra 413102, India",Baramati,General Manufacturing,Manufacturer,18.1617799,74.5951647,099705 87888,,5,4
SaiSamadhan Foods,"Baramati Hi-Tech Textile Park Ltd, Maharashtra Industrial Development Corporation Area, Baramati, Maharashtra 413133, India",Baramati,General Manufacturing,Manufacturer,18.1983539,74.616624,,,,
SaiSamadhan Mark Ventures Ltd.,"E-33 near main gate of textile park, Maharashtra Industrial Development Corporation Area, Baramati, Maharashtra 413133, India",Baramati,General Manufacturing,Manufacturer,18.1984405,74.6163679,,,5,4
SaiTechbits Solutions,"3rd floor, Pencil Square Building, 204, Bhigwan Rd, near Mahindra Showroom, Baramati, Maharashtra 413133, India",Baramati,Electronics Manufacturing,Manufacturer,18.1823782,74.6096891,077093 07872,https://www.saitechbits.com/,4.6,14
SAM ELECTRONICS & ELECTRICALS,"plot no9, h.no 4/400, Shrirang Society, bunglow, Baramati, Maharashtra 413102, India",Baramati,Electronics Manufacturing,Manufacturer,18.1547075,74.5831605,098223 76515,,3.7,3
Samarth agro oil industries,"pati mali vasti, at post diksal bhigwan rashin road near khanota, Bhigwan, Maharashtra 413105, India",Baramati,Chemical Processing,Manufacturer,18.31672,74.8016381,098900 42709,,5,5
Samruddhi Electronics,"1 Suryanagri, Baramati, Maharashtra 413133, India",Baramati,Electronics Manufacturing,Manufacturer,18.1754232,74.6078562,080879 14857,,,
Samudra Electronic System Pvt. Ltd,"Plot No. C-2, MIDC, Baramati-Bhigwan Rd, Baramati, Pune, Maharashtra 413133, India",Baramati,Electronics Manufacturing,Manufacturer,18.191141,74.614096,02112 244 104,http://www.samudraled.com/,4.8,13
SANA ENGINEERING,"D/13, Maharashtra Industrial Development Corporation Area, Midc Area, Baramati, Maharashtra 413133, India",Baramati,Mechanical Engineering,Manufacturer,18.1861892,74.5987869,,,3.5,2
Sandeepa Power Lines,"5JW5+2J2, Maharashtra Industrial Development Corporation Area, Baramati, Maharashtra 413133, India",Baramati,General Manufacturing,Manufacturer,18.1950133,74.6090168,02112 243 650,http://sandeepapower.com/about.html,5,1
Sankalp Apparels Private Limited,"Baramati Hi-Tech Textile Park Ltd, Plot -1, Maharashtra Industrial Development Corporation Area, Baramati, Maharashtra 413133, India",Baramati,General Manufacturing,Manufacturer,18.1977766,74.6159448,074149 32640,,5,1
Saras Veterinary Pharma,"Maharashtra Industrial Development Corporation Area, Baramati, Maharashtra 413133, India",Baramati,Pharmaceutical Manufacturing,Manufacturer,18.1942674,74.6225153,,,4.9,13
Saraswati Textile,"Saraswati Textile, near Kharadi vikri Sangh petrol pump, near MIDC, Baramati, Maharashtra 413133, India",Baramati,General Manufacturing,Manufacturer,18.1842922,74.6115671,074999 64920,https://www.facebook.com/saraswatitextilebaramati?mibextid=ZbWKwL,,
Sarvasva Masale (Factory Outlet),"Ambika Nagar, Near Hotel Sudit Executive, Ring Road, Jalochi, Baramati, Maharashtra 413102, India",Baramati,Food Processing,Manufacturer,18.1556778,74.588868,090219 17677,,4.6,26
Sarvaya Industries,"Baramati, Maharashtra 413133, India",Baramati,Plastic Manufacturing,Manufacturer,18.1791791,74.6077971,,,,
Sarvesh Enterprises,"Maharashtra Industrial Development Corporation Area, E-118, Baramati, Maharashtra 413133, India",Baramati,Automobile Manufacturing,Manufacturer,18.204092,74.6078344,,,5,3
Satraj engineering,"Babasaheb Deshmukh chouk, Patas Rd, Patangshah Nagar, Baramati, Maharashtra 413102, India",Baramati,Mechanical Engineering,Manufacturer,18.1535671,74.5688526,,,,
Savita Electrical Enterprises,"Mauli Nagar, Baramati, Maharashtra 413102, India",Baramati,General Manufacturing,Manufacturer,18.1664551,74.5874852,,,4.9,8
Schreiber Dynamix Dairies Private Limited,"opp. Schreiber Dynamix Dairies, Maharashtra Industrial Development Corporation Area, Baramati, Maharashtra 413133, India",Baramati,Electronics Manufacturing,Manufacturer,18.1911501,74.6160601,02112 662 700,https://www.schreiberfoods.com/,4.2,408
Sci Fi Technology Systems Pvt. Ltd.,"Niranjan Corner, Shop No.2, Niranjan Corner, Hotel Samrat Road, Near Nobel Furniture Mall, Bhigwan Road, MIDC Baramati Road, Saily Nagar, Baramati, Maharashtra 413133, India",Baramati,IT Services,Manufacturer,18.1757918,74.6037507,02112 243 003,,5,1
Sellowrap EPP India Pvt. Ltd.,"Gat No. 48, Jaid patil Wearhouse Chimbli Phata,Chakan, Talkhed, Pune, Maharashtra 412105, India",Baramati,Logistics & Warehousing,Manufacturer,18.697023,73.8491435,,,4.7,3
Senvion Wind Technology Pvt. Limited,"B- 15/1, Maharashtra Industrial Development Corporation Area, Baramati, Maharashtra 413133, India",Baramati,General Manufacturing,Manufacturer,18.1826625,74.5972344,022 6908 0000,http://www.senvion.com/global/en,4.4,77
SF PowerBay - Ignition Auto Pvt Ltd Baramati,"No 6, No 132/3, Auto Market, C/2, Nira Baramati Road, near Vitthal Plaza, Baramati, Maharashtra 413133, India",Baramati,Automobile Manufacturing,Manufacturer,18.179201,74.607801,080 6975 3003,https://stores.sfbatteries.in/sf-powerbay-ignition-auto-pvt-ltd-baramati-battery-store-auto-market-baramati-263855/Home?utm_source=locator&utm_medium=googleplaces,,
SHAANTAI FOOD PRODUCTS,"Cinema Road, Juni Bhaji Mandai Rd, Baramati, Maharashtra 413102, India",Baramati,Food Processing,Manufacturer,18.1464552,74.5737747,097665 98260,,4.2,5
SHAKTI ENTERPRISES BARAMATI,"5JP7+P86, Bhigwan Rd, Ghadgewasti, Shiva Nagar, Baramati, Maharashtra 413133, India",Baramati,General Manufacturing,Manufacturer,18.1867755,74.6132733,1800 2335,http://www.shaktienterprises.com/,3.7,3
Shakti Industries - Bond Patches,"Maharashtra Industrial Development Corporation Area, Baramati, Maharashtra 413133, India",Baramati,General Manufacturing,Manufacturer,18.1840942,74.6041314,094230 42287,,4.9,7
Shakti Polymers - Tyre Rubber Products Manufacturing,"Maharashtra Industrial Development Corporation Area, Baramati, Maharashtra 413133, India",Baramati,General Manufacturing,Manufacturer,18.1842049,74.604227,077218 53000,,,
Shambhuraje medical & Distributors,"5JG4+6M5, Mota Nagar, Baramati Midc, Maharashtra Industrial Development Corporation Area, Road, Baramati, Maharashtra 413133, India",Baramati,Pharmaceutical Manufacturing,Manufacturer,18.1755044,74.6067317,070388 59696,,5,3
